%time,field.header.seq,field.header.stamp,field.header.frame_id,field.commands0.command1,field.commands0.command2,field.commands0.setpoint1,field.commands0.setpoint2,field.commands0.limit1_p,field.commands0.limit1_n,field.commands0.limit2_p,field.commands0.limit2_n,field.commands0.timestamp,field.commands1.command1,field.commands1.command2,field.commands1.setpoint1,field.commands1.setpoint2,field.commands1.limit1_p,field.commands1.limit1_n,field.commands1.limit2_p,field.commands1.limit2_n,field.commands1.timestamp,field.commands2.command1,field.commands2.command2,field.commands2.setpoint1,field.commands2.setpoint2,field.commands2.limit1_p,field.commands2.limit1_n,field.commands2.limit2_p,field.commands2.limit2_n,field.commands2.timestamp,field.commands3.command1,field.commands3.command2,field.commands3.setpoint1,field.commands3.setpoint2,field.commands3.limit1_p,field.commands3.limit1_n,field.commands3.limit2_p,field.commands3.limit2_n,field.commands3.timestamp,field.sensors0.status1,field.sensors0.status2,field.sensors0.sensor_ts,field.sensors0.setpoint_ts,field.sensors0.encoder_1,field.sensors0.velocity_1,field.sensors0.current_1_d,field.sensors0.current_1_q,field.sensors0.current_1_u,field.sensors0.current_1_v,field.sensors0.current_1_w,field.sensors0.voltage_1,field.sensors0.voltage_1_u,field.sensors0.voltage_1_v,field.sensors0.voltage_1_w,field.sensors0.temperature_1,field.sensors0.encoder_2,field.sensors0.velocity_2,field.sensors0.current_2_d,field.sensors0.current_2_q,field.sensors0.current_2_u,field.sensors0.current_2_v,field.sensors0.current_2_w,field.sensors0.voltage_2,field.sensors0.voltage_2_u,field.sensors0.voltage_2_v,field.sensors0.voltage_2_w,field.sensors0.temperature_2,field.sensors0.encoder_pivot,field.sensors0.velocity_pivot,field.sensors0.voltage_bus,field.sensors0.imu_ts,field.sensors0.accel_x,field.sensors0.accel_y,field.sensors0.accel_z,field.sensors0.gyro_x,field.sensors0.gyro_y,field.sensors0.gyro_z,field.sensors0.temperature_imu,field.sensors0.pressure,field.sensors1.status1,field.sensors1.status2,field.sensors1.sensor_ts,field.sensors1.setpoint_ts,field.sensors1.encoder_1,field.sensors1.velocity_1,field.sensors1.current_1_d,field.sensors1.current_1_q,field.sensors1.current_1_u,field.sensors1.current_1_v,field.sensors1.current_1_w,field.sensors1.voltage_1,field.sensors1.voltage_1_u,field.sensors1.voltage_1_v,field.sensors1.voltage_1_w,field.sensors1.temperature_1,field.sensors1.encoder_2,field.sensors1.velocity_2,field.sensors1.current_2_d,field.sensors1.current_2_q,field.sensors1.current_2_u,field.sensors1.current_2_v,field.sensors1.current_2_w,field.sensors1.voltage_2,field.sensors1.voltage_2_u,field.sensors1.voltage_2_v,field.sensors1.voltage_2_w,field.sensors1.temperature_2,field.sensors1.encoder_pivot,field.sensors1.velocity_pivot,field.sensors1.voltage_bus,field.sensors1.imu_ts,field.sensors1.accel_x,field.sensors1.accel_y,field.sensors1.accel_z,field.sensors1.gyro_x,field.sensors1.gyro_y,field.sensors1.gyro_z,field.sensors1.temperature_imu,field.sensors1.pressure,field.sensors2.status1,field.sensors2.status2,field.sensors2.sensor_ts,field.sensors2.setpoint_ts,field.sensors2.encoder_1,field.sensors2.velocity_1,field.sensors2.current_1_d,field.sensors2.current_1_q,field.sensors2.current_1_u,field.sensors2.current_1_v,field.sensors2.current_1_w,field.sensors2.voltage_1,field.sensors2.voltage_1_u,field.sensors2.voltage_1_v,field.sensors2.voltage_1_w,field.sensors2.temperature_1,field.sensors2.encoder_2,field.sensors2.velocity_2,field.sensors2.current_2_d,field.sensors2.current_2_q,field.sensors2.current_2_u,field.sensors2.current_2_v,field.sensors2.current_2_w,field.sensors2.voltage_2,field.sensors2.voltage_2_u,field.sensors2.voltage_2_v,field.sensors2.voltage_2_w,field.sensors2.temperature_2,field.sensors2.encoder_pivot,field.sensors2.velocity_pivot,field.sensors2.voltage_bus,field.sensors2.imu_ts,field.sensors2.accel_x,field.sensors2.accel_y,field.sensors2.accel_z,field.sensors2.gyro_x,field.sensors2.gyro_y,field.sensors2.gyro_z,field.sensors2.temperature_imu,field.sensors2.pressure,field.sensors3.status1,field.sensors3.status2,field.sensors3.sensor_ts,field.sensors3.setpoint_ts,field.sensors3.encoder_1,field.sensors3.velocity_1,field.sensors3.current_1_d,field.sensors3.current_1_q,field.sensors3.current_1_u,field.sensors3.current_1_v,field.sensors3.current_1_w,field.sensors3.voltage_1,field.sensors3.voltage_1_u,field.sensors3.voltage_1_v,field.sensors3.voltage_1_w,field.sensors3.temperature_1,field.sensors3.encoder_2,field.sensors3.velocity_2,field.sensors3.current_2_d,field.sensors3.current_2_q,field.sensors3.current_2_u,field.sensors3.current_2_v,field.sensors3.current_2_w,field.sensors3.voltage_2,field.sensors3.voltage_2_u,field.sensors3.voltage_2_v,field.sensors3.voltage_2_w,field.sensors3.temperature_2,field.sensors3.encoder_pivot,field.sensors3.velocity_pivot,field.sensors3.voltage_bus,field.sensors3.imu_ts,field.sensors3.accel_x,field.sensors3.accel_y,field.sensors3.accel_z,field.sensors3.gyro_x,field.sensors3.gyro_y,field.sensors3.gyro_z,field.sensors3.temperature_imu,field.sensors3.pressure,field.working_count
1.54385355652132E+018,1416,1.54385355652099E+018,,3,0,0.9507449269,-0.381965667,6,-6,6,-6,0,3,0,0.7218965888,-0.6283172369,6,-6,6,-6,0,3,0,0.6793283224,-0.7395393848,6,-6,6,-6,0,3,0,0.6848788857,-0.7196342349,6,-6,6,-6,0,3,2051,3.34828273775E+018,3.34828273775E+018,5.9924607277,0.0016001272,-0.0081027215,0.9859035015,0.2587890625,-0.708984375,0.580078125,0.1481084228,0.0304268654,-0.1407916546,0.1103647947,0,1.80311656,-0.0018859967,0.010337011,0.0443867333,-0.0322265625,-0.064453125,-0.0966796875,-36,-4.0952677727,-39.7834320068,43.8787002563,0,6.0254545212,-0.0051424592,18.1748046875,3.34828273775E+018,0.2682422102,10.0303421021,-0.0574804693,-0.0490021631,0.0053263223,-0.0788295716,34.5,994.765258789,3,2051,3.34828273775E+018,3.34828273775E+018,2.3347327709,0.0077928081,0.1214736104,0.7266635299,0.5478515625,-0.4833984375,-0.2255859375,0.1338503212,0.1309126318,-0.0896046832,-0.0413079485,0,0.2947412431,-0.0024770966,0.1140423864,-0.5117208362,-0.0966796875,0.2900390625,-0.451171875,-0.0952318534,0.0197489355,0.0708140209,-0.090562962,0,6.0761079788,0.2397227734,18.2484855652,3.34828273775E+018,0.239501968,10.3369045258,-0.3257226646,0.0191747602,-0.0042610578,0.0213052891,39,994.992675781,3,2051,3.34828273775E+018,3.34828273775E+018,2.68206954,0.0026003127,-0.0892146826,0.6066154242,-0.837890625,-0.0322265625,0.193359375,0.0920801237,-0.0915822163,0.0374635309,0.0541186854,0,4.382999897,-0.0082732113,-0.0315904543,-0.8347952366,-0.322265625,-0.708984375,0.451171875,-0.1177218556,-0.0346054509,-0.0812394619,0.1158449203,0,6.0665588379,0.0016798824,18.1993656158,3.34828273775E+018,0.2586621344,9.7525196075,-0.2107617259,0.0287621394,-0.0308926702,0.0223705545,41,994.59362793,3,2051,3.34828273775E+018,3.34828273775E+018,5.6118593216,0.0030048066,0.0878040642,0.6921138763,0.322265625,0.2900390625,-0.5478515625,0.097623907,0.0350273885,0.0615864471,-0.0966138318,0,3.8812041283,-0.0026281208,0.0046163327,-0.7310739756,0.515625,-0.353515625,0,-0.1021305546,0.0877478495,-0.0897564143,0.002008561,0,6.266409874,0.0020216163,18.3467273712,3.34828273775E+018,0.2490820438,10.0590820312,0.0574804693,-0.0159789659,-0.0095873801,-0.0149137024,40.5,994.06817627,12
1.54385355665555E+018,1417,1.54385355665524E+018,,3,0,0.947881937,-0.3799265027,6,-6,6,-6,0,3,0,0.7192289233,-0.6260727644,6,-6,6,-6,0,3,0,0.6761588454,-0.7377873063,6,-6,6,-6,0,3,0,0.685836792,-0.7197864056,6,-6,6,-6,0,3,2051,3.34828273788E+018,3.34828273788E+018,5.9928202629,0.0025033059,0.0061839311,1.030205369,0.2255859375,-0.7734375,0.64453125,0.1293662339,0.0267090444,-0.1230249256,0.0963158756,0,1.8027809858,0.0011488574,0.0484819673,0.1525351107,0.193359375,0.064453125,-0.0322265625,-36,-4.4118652344,-39.4716300964,43.881980896,0,6.025478363,0.0006245233,18.187084198,3.34828273788E+018,0.2874023616,10.1069831848,-0.1916015744,-0.0319579318,-0.0021305289,-0.0149137024,34.5,994.766784668,3,2051,3.34828273788E+018,3.34828273788E+018,2.3352003098,0.0060340506,0.0607505478,0.6989818811,0.4833984375,-0.4833984375,-0.193359375,0.1389922351,0.1364993602,-0.0910593569,-0.0454399996,0,0.2942618728,-0.0058610849,0.1332788169,-0.5866442919,0.064453125,0.2900390625,-0.515625,-0.0898421183,0.0167045929,0.0681011826,-0.0848057717,0,6.0761079788,0.2268833518,18.260766983,3.34828273788E+018,0.1341211051,10.4997663498,-0.2011816502,-0.0362189934,0.0074568512,-0.0276968759,39,994.993591309,3,2051,3.34828273788E+018,3.34828273788E+018,2.6824531555,0.0073995725,-0.0059328601,0.5175966024,-0.708984375,-0.12890625,-0.0322265625,0.1163155138,-0.1154315919,0.0453261212,0.0701054707,0,4.3826761246,-0.0012806001,-0.0123617332,-0.8553686142,-0.38671875,-0.8056640625,0.38671875,-0.1283096671,-0.0352581367,-0.0900583714,0.1253165007,0,6.0665588379,0.0003745106,18.1993656158,3.34828273788E+018,0.3257226646,10.3081645966,-0.0191601571,0.0021305289,-0.0276968759,-0.0255663469,41,994.592407227,3,2051,3.34828273788E+018,3.34828273788E+018,5.6122307777,0.0002016679,-0.0568886325,0.8251079917,0.322265625,0.515625,-0.580078125,0.0875642672,0.0397686213,0.0642939731,-0.1040625945,0,3.8810243607,-0.0019560766,-0.096192345,-0.6788571477,0.64453125,-0.322265625,0.2255859375,-0.1196296886,0.1034584492,-0.1042548716,0.0007964186,0,6.2663860321,-0.0049252803,18.3467273712,3.34828273788E+018,0.2490820438,10.423125267,-0.1437011808,-0.0532632247,0.0202400237,-0.0330231972,40.5,994.069152832,12
1.54385355679024E+018,1418,1.54385355678995E+018,,3,0,0.9476929903,-0.3785938621,6,-6,6,-6,0,3,0,0.7190026641,-0.6271789074,6,-6,6,-6,0,3,0,0.680390358,-0.7420989275,6,-6,6,-6,0,3,0,0.6855574846,-0.7198834419,6,-6,6,-6,0,3,2051,3.34828273802E+018,3.34828273802E+018,5.9930481911,0.0013580797,-0.0495555066,0.9036508799,0.1611328125,-0.7734375,0.451171875,0.1469801366,0.0305257197,-0.13983652,0.1093108058,0,1.8024933338,-0.0044484646,0.1484379619,-0.1333514303,-0.064453125,0.0322265625,0.12890625,-36,-4.6875834465,-39.1915893555,43.8791732788,0,6.0254545212,-0.005158857,18.2116451263,3.34828273802E+018,0.3927832246,10.2506837845,-0.3544628918,0.0511326939,0.0404800475,0.0255663469,34.5,994.769592285,3,2051,3.34828273802E+018,3.34828273802E+018,2.3356916904,0.0074759591,0.0284809563,0.758433044,0.4833984375,-0.5478515625,-0.2900390625,0.1226463616,0.12019822,-0.0812132806,-0.0389849395,0,0.2937465608,-0.005147005,0.078781575,-0.705072403,-0.12890625,0.2900390625,-0.708984375,-0.0829841495,0.0177427698,0.061336562,-0.07907933,0,6.0761079788,0.1086990237,18.2730464935,3.34828273802E+018,0.1341211051,10.1932039261,-0.2874023616,0.011717909,-0.0649811327,-0.0330231972,39,994.989379883,3,2051,3.34828273802E+018,3.34828273802E+018,2.6828005314,0.0009068587,0.1641990989,0.7617307901,-0.90234375,0.0966796875,0,0.0942725092,-0.0931014046,0.0333630629,0.0597383417,0,4.3823046684,0.0010397116,0.2476853579,-0.6295278668,-0.0966796875,-0.7412109375,0.193359375,-0.1402870715,-0.0404327586,-0.0972086489,0.137641415,0,6.066534996,-0.0046902434,18.2362060547,3.34828273802E+018,0.1628613323,10.2027835846,-0.3832031488,0.0532632247,0.0585895441,0.0255663469,41,994.592468262,3,2051,3.34828273802E+018,3.34828273802E+018,5.6126861572,0.0013237688,0.0641692951,0.6282292604,0.38671875,0.38671875,-0.451171875,0.0964218378,0.034600921,0.0607772209,-0.0953781456,0,3.8807008266,-0.0015011171,0.1396162361,-0.7390226722,0.708984375,-0.322265625,-0.0322265625,-0.0989506543,0.0828789026,-0.089521423,0.0066425204,0,6.266409874,0.0008923225,18.3590087891,3.34828273802E+018,0.2011816502,10.4710254669,-0.1532812566,0.0298274048,0.011717909,-0.0308926702,40.5,994.071044922,12
1.54385355692437E+018,1419,1.54385355692414E+018,,3,0,0.9496296048,-0.380217284,6,-6,6,-6,0,3,0,0.7248971462,-0.6283428669,6,-6,6,-6,0,3,0,0.6744121909,-0.7410117388,6,-6,6,-6,0,3,0,0.6843960285,-0.7188941836,6,-6,6,-6,0,3,2051,3.34828273815E+018,3.34828273815E+018,5.9933357239,-0.0008945766,0.0625706911,1.0174990892,0.2578125,-0.6767578125,0.708984375,0.1415156126,0.0303298682,-0.1349180937,0.1045882329,0,1.802205801,-0.000701875,-0.0770397782,0.0172032248,0.064453125,0.1611328125,0.064453125,-36,-4.7251243591,-39.2552490234,43.9803771973,0,6.025478363,0.0006576887,18.2116451263,3.34828273815E+018,0.1820214987,10.1548833847,-0.2586621344,0.011717909,-0.0031957934,0.0202400237,34.5,994.767944336,3,2051,3.34828273815E+018,3.34828273815E+018,2.3361949921,0.0018539858,-0.0175953992,0.7750139236,0.580078125,-0.451171875,-0.2578125,0.1213652045,0.4759910107,-0.0928783491,-0.0432210192,0,0.2932312489,-0.0040447544,-0.0313415155,-0.6123483181,0.0966796875,0.322265625,-0.515625,-0.0920645967,0.0178989954,0.0692666769,-0.0871656686,0,6.0761079788,0.0012126402,18.285326004,3.34828273815E+018,0.1916015744,10.1644630432,-0.2011816502,0.0170442313,0.0010652645,-0.0181094967,39,994.991455078,3,2051,3.34828273815E+018,3.34828273815E+018,2.6830883026,0.0032203069,-0.0102102812,0.637960434,-0.7412109375,-0.0322265625,0.0966796875,0.0954902172,-0.0947159082,0.0368595086,0.066437386,0,4.3819928169,0.0002410111,-0.0231854655,-0.8350750208,-0.2578125,-0.64453125,0.515625,-0.1217521951,-0.0354665779,-0.0840796679,0.1195462495,0,6.066534996,-0.0045982157,18.2362060547,3.34828273815E+018,0.3065625131,10.0974025726,-0.3544628918,-0.0617853403,-0.0340884626,-0.0191747602,41,994.593994141,3,2051,3.34828273815E+018,3.34828273815E+018,5.6131415367,0.0053530042,-0.0392813496,0.7054459453,0.193359375,0.3544921875,-0.580078125,0.1021627337,0.0360636972,0.0649021268,-0.1009658277,0,3.8804609776,-0.0010490913,0.0560890958,-0.6195828915,0.6123046875,-0.515625,-0.0322265625,-0.1109582633,0.0947538391,-0.0980931222,0.0033392794,0,6.266409874,0.0007840631,18.3590087891,3.34828273815E+018,-0.0095800785,9.7525196075,-0.2778222859,0.0042610578,-0.011717909,-0.0223705545,40.5,994.0703125,12
1.54385355705958E+018,1420,1.54385355705925E+018,,3,0,0.9533034563,-0.3798833191,6,-6,6,-6,0,3,0,0.7250244021,-0.6255093813,6,-6,6,-6,0,3,0,0.6784574389,-0.7385551333,6,-6,6,-6,0,3,0,0.6830512881,-0.7219297886,6,-6,6,-6,0,3,2051,3.34828273829E+018,3.34828273829E+018,5.993563652,-0.0020965827,0.0210654959,1.0048481226,0.2578125,-0.708984375,0.6767578125,0.141252324,0.0300731901,-0.1346199512,0.1045467556,0,1.8019421101,-0.0035574776,0.0158799905,-0.0501717143,-0.064453125,-0.064453125,0,-36,-4.7314977646,-39.3551445007,44.086643219,0,6.025478363,0.0004440764,18.1993656158,3.34828273828E+018,0.2203418016,10.2219438553,-0.3065625131,-0.0031957934,0,-0.023435818,34.5,994.768615723,3,2051,3.34828273829E+018,3.34828273829E+018,2.3366384506,0.0006610248,-0.0281870347,0.611369729,0.4189453125,-0.38671875,-0.2578125,0.1431413293,0.1402634084,-0.0948705524,-0.045392856,0,0.292763859,-0.0048561795,-0.0765862241,-0.7628452182,0.12890625,0.3544921875,-0.6767578125,-0.0744317845,0.0144301653,0.0601555035,-0.0779806897,0,6.0761079788,0.1093534753,18.285326004,3.34828273828E+018,0.1437011808,10.3081645966,-0.2778222859,-0.0404800475,0.0063915867,0.0905474797,39,994.990234375,3,2051,3.34828273829E+018,3.34828273829E+018,2.6833159924,0.0001992261,0.0087367808,0.595898509,-0.6767578125,0,0.0966796875,0.0968910158,-0.0957550257,0.0348964632,0.0608585626,0,4.3816933632,-0.0058898204,-0.0541388057,-0.7945148349,-0.3544921875,-0.7412109375,0.4833984375,-0.1183208674,-0.0343131348,-0.0817682743,0.1160814017,0,6.0665588379,0.0006319949,18.2116451263,3.34828273829E+018,0.086220704,9.9153814316,-0.4215234518,-0.0031957934,-0.0010652645,-0.0436758436,41,994.596130371,3,2051,3.34828273829E+018,3.34828273829E+018,5.6135606766,0.0058468585,0.0995675251,0.6905101538,0.38671875,0.3544921875,-0.4833984375,0.0941110998,0.0328762531,0.0600686446,-0.0929448977,0,3.8802573681,-0.0019855204,0.0429342948,-0.641479075,0.515625,-0.38671875,-0.0322265625,-0.1149128228,0.0968201533,-0.1031460986,0.0063259453,0,6.264852047,-0.0065230159,18.3590087891,3.34828273829E+018,0.239501968,10.3752250671,-0.1437011808,0.0213052891,0.0276968759,0.0553937517,40.5,994.070129395,12
1.54385355719426E+018,1421,1.54385355719396E+018,,3,0,0.9520897865,-0.3783650398,6,-6,6,-6,0,3,0,0.7227026224,-0.626044631,6,-6,6,-6,0,3,0,0.67883569,-0.7421190143,6,-6,6,-6,0,3,0,0.6820008755,-0.7212070227,6,-6,6,-6,0,3,2051,3.34828273842E+018,3.34828273842E+018,5.9938392639,0.0009848531,-0.0088289045,1.0365561247,0.2578125,-0.7734375,0.64453125,0.1403378099,0.031768214,-0.1342882216,0.1025200039,0,1.8016784191,-0.0026372799,0.0033830614,0.1391922981,0.064453125,0,-0.12890625,-36,-4.7274160385,-39.4714355469,44.1988525391,0,6.025478363,0.0005934303,18.2116451263,3.34828273842E+018,0.3640429974,10.4806060791,-0.4981640875,0.0298274048,0.0042610578,0.0042610578,34.5,994.766418457,3,2051,3.34828273842E+018,3.34828273842E+018,2.3370578289,0.0028743187,-0.1452845931,0.8697085977,0.6767578125,-0.4189453125,-0.38671875,0.1185595095,0.116010882,-0.079242669,-0.0367682129,0,0.2923204303,-0.0061046579,0.0177056286,-0.6262980103,-0.0322265625,0.2900390625,-0.6767578125,-0.0827680975,0.0184760783,0.0606332831,-0.0791093633,0,6.0761079788,0.0159937162,18.2976074219,3.34828273842E+018,0.2490820438,10.3177442551,-0.3257226646,-0.0106526446,-0.0340884626,0.0202400237,39,994.989990234,3,2051,3.34828273842E+018,3.34828273842E+018,2.6836395264,0.0025574507,0.0385493189,0.8045174479,-0.837890625,0.0966796875,0.193359375,0.092981793,-0.0919919014,0.0342309102,0.0577609912,0,4.3814177513,-0.0027828384,-0.0504169725,-0.7250640392,-0.322265625,-0.6123046875,0.38671875,-0.1362258643,-0.037302129,-0.0955263972,0.1328285336,0,6.0665588379,0.0006677955,18.2239246368,3.34828273842E+018,0.1628613323,10.1740436554,-0.2969824374,0.0063915867,0.0074568512,0.0181094967,41,994.598876953,3,2051,3.34828273842E+018,3.34828273842E+018,5.6139564514,0.0022393768,-0.0546657071,0.7214041352,0.2900390625,0.4833984375,-0.4833984375,0.0927780047,0.0308861528,0.0576036684,-0.0842605233,0,3.8800535202,-0.0013814704,0.0467107892,-0.5958772898,0.515625,-0.322265625,0,-0.1186133996,0.101051636,-0.1050700992,0.0040184595,0,6.264852047,-0.0050972402,18.3712882996,3.34828273842E+018,0.3640429974,10.4039649963,-0.0670605525,0.0127831735,0.0149137024,0.0149137024,40.5,994.071166992,12
1.54385355732855E+018,1422,1.54385355732828E+018,,3,0,0.9498356581,-0.3773285151,6,-6,6,-6,0,3,0,0.7275051475,-0.6272292733,6,-6,6,-6,0,3,0,0.6755582094,-0.7398098111,6,-6,6,-6,0,3,0,0.6818520427,-0.7199204564,6,-6,6,-6,0,3,2051,3.34828273856E+018,3.34828273856E+018,5.9940667152,0.0031654472,0.1393827945,1.0227841139,0.1611328125,-0.677734375,0.580078125,0.1362848729,0.0303792153,-0.1302838475,0.0999046341,0,1.8014267683,-0.0008704729,-0.0302733164,-0.2032672167,-0.12890625,0,0.1611328125,-36,-4.7313475609,-39.5718154907,44.3031616211,0,6.025478363,0.0004405694,18.1993656158,3.34828273855E+018,0.1820214987,10.0974025726,0.0095800785,-0.0521979593,0.0383495204,-0.0276968759,34.5,994.767211914,3,2051,3.34828273856E+018,3.34828273856E+018,2.3374891281,-0.0008063371,-0.0380338505,0.5685638189,0.4189453125,-0.322265625,-0.2255859375,0.1528740227,0.1501422673,-0.0999795049,-0.0501627624,0,0.2918770313,0.0012718169,0.0929171965,-1.8784481287,0.064453125,0.451171875,-0.515625,-0.0893459544,0.019521242,0.0657452345,-0.0852664709,0,6.0761079788,0.0153651554,18.285326004,3.34828273855E+018,0.105380863,10.2027835846,-0.1532812566,-0.0191747602,0.0383495204,-0.0362189934,39,994.990783691,3,2051,3.34828273856E+018,3.34828273856E+018,2.6839630604,0.0039222008,-0.0355026685,0.748493731,-0.8056640625,0,0.193359375,0.0886253044,-0.0949930176,0.0359608233,0.0589306578,0,4.3810939789,-0.0047777225,0.0647165403,-0.6825883389,-0.2578125,-0.6767578125,0.2900390625,-0.1320686191,-0.0377252698,-0.091557987,0.1292832494,0,6.066534996,-0.0042586951,18.2239246368,3.34828273856E+018,0.2874023616,10.0878229141,-0.1149609387,0.0745685101,0.0170442313,0.0138484379,41,994.598632812,3,2051,3.34828273856E+018,3.34828273856E+018,5.61439991,0.0044963048,0.0811706111,0.6793012023,0.322265625,0.322265625,-0.515625,0.1055898592,0.0351612642,0.0688550621,-0.1040163338,0,3.8797779083,-0.0062878835,-0.0445473976,-0.864766717,0.7412109375,-0.4833984375,0.12890625,-0.0925440639,0.0775559396,-0.0834725201,0.0061877817,0,6.2648758888,0.000733771,18.3712882996,3.34828273856E+018,0.0670605525,10.1740436554,0.1245410219,0.0884169489,-0.0852211565,0.0308926702,40.5,994.071716309,12
1.54385355746328E+018,1423,1.54385355746298E+018,,3,0,0.9505054355,-0.3791180551,6,-6,6,-6,0,3,0,0.7227191925,-0.6248421073,6,-6,6,-6,0,3,0,0.6768788099,-0.7417205572,6,-6,6,-6,0,3,0,0.6832959652,-0.7212108374,6,-6,6,-6,0,3,2051,3.34828273869E+018,3.34828273869E+018,5.9942584038,-0.0005400995,0.0307726283,0.9098275304,0.193359375,-0.708984375,0.708984375,0.1494362801,0.0352473371,-0.1433988214,0.108151488,0,1.8011990786,-0.0008060092,0.0609569997,0.0336255915,0.12890625,0.0322265625,0.064453125,-36,-4.7254662514,-39.6765327454,44.4019966125,0,6.025478363,0.0003835937,18.2116451263,3.34828273869E+018,0.1149609387,10.3464851379,-0.0287402347,-0.0031957934,0.0159789659,0.0905474797,34.5,994.763305664,3,2051,3.34828273869E+018,3.34828273869E+018,2.3378965855,0.0001467092,0.1052367389,0.8088771105,0.580078125,-0.5478515625,-0.193359375,0.1245467663,0.1228382066,-0.0793072283,-0.0435309783,0,0.2914575636,-0.0061973468,-0.0255980529,-0.6684683561,0.064453125,0.2578125,-0.64453125,-0.0841801465,0.01644467,0.0633084029,-0.0797530711,0,6.0760836601,0.0715753436,18.3098869324,3.34828273869E+018,0.1820214987,10.2985839844,-0.0574804693,0.0319579318,0.0330231972,0.0649811327,39,994.992248535,3,2051,3.34828273869E+018,3.34828273869E+018,2.6841788292,-0.0021649546,-0.0131308809,0.732391119,-0.837890625,-0.0322265625,0.12890625,0.0838604942,-0.0828278139,0.029965762,0.0528620519,0,4.3807945252,-0.0035881319,-0.1247366741,-0.808667779,-0.4189453125,-0.64453125,0.451171875,-0.1217158437,-0.0361323021,-0.0918622538,0.1308081597,0,6.0665588379,0.001445993,18.2362060547,3.34828273869E+018,0.3161425889,10.4039649963,-0.7280859947,-0.0287621394,0.0031957934,-0.0106526446,41,994.598632812,3,2051,3.34828273869E+018,3.34828273869E+018,5.614795208,-0.0008253214,-0.0324860364,0.8524072766,0.2578125,0.451171875,-0.6767578125,0.0825053304,0.0272577107,0.0539684445,-0.0812261552,0,3.8796100617,-0.001965791,-0.107661806,-0.8388081193,0.6123046875,-0.580078125,0,-0.0899555609,0.0753239691,-0.0811795741,0.005855605,0,6.2648758888,0.0002883137,18.3835697174,3.34828273869E+018,0.2107617259,10.1165628433,-0.3065625131,-0.0202400237,0.0255663469,0.0937432721,40.5,994.069152832,12
1.54385355759745E+018,1424,1.54385355759719E+018,,3,0,0.9518125653,-0.3791973293,6,-6,6,-6,0,3,0,0.7208817005,-0.6244832873,6,-6,6,-6,0,3,0,0.6788229346,-0.7446992993,6,-6,6,-6,0,3,0,0.6859896183,-0.7240988016,6,-6,6,-6,0,3,2051,3.34828273883E+018,3.34828273883E+018,5.994474411,0.0007251205,0.0027933249,0.8469144106,0.193359375,-0.64453125,0.515625,0.1701650321,0.0398188531,-0.163208425,0.1233895719,0,1.8009594679,-0.00528304,-0.1029975861,0.0216556266,-0.064453125,0,0.12890625,-36,-4.7336468697,-39.7667884827,44.5004386902,0,6.025478363,0.000012181,18.2116451263,3.34828273882E+018,0.4598437548,10.2506837845,-0.3448828161,0.0095873801,0.0053263223,0,34.5,994.762023926,3,2051,3.34828273883E+018,3.34828273883E+018,2.3383879662,0.0034126157,-0.1258357763,0.6992012262,0.580078125,-0.2900390625,-0.2900390625,0.1349600554,0.1324698627,-0.0886389688,-0.0438308939,0,0.2909422517,-0.0091950623,-0.0865779221,-0.60586375,0.0966796875,0.2255859375,-0.580078125,-0.0912959054,0.0197153483,0.0673494041,-0.0870647579,0,6.0760836601,0.0948193371,18.2976074219,3.34828273882E+018,0.086220704,10.3177442551,-0.3640429974,-0.0213052891,-0.023435818,0.0223705545,39,994.992980957,3,2051,3.34828273883E+018,3.34828273883E+018,2.6845023632,0.0039609708,-0.070721589,0.6346555948,-0.7734375,-0.12890625,0.0966796875,0.101727277,-0.1009587422,0.0395756066,0.0613831356,0,4.3805189133,-0.0009643252,0.1552789062,-0.6435378194,-0.12890625,-0.64453125,0.2900390625,-0.1494055092,-0.0417864174,-0.104072392,0.1458588094,0,6.0665588379,0.0009445058,18.2116451263,3.34828273882E+018,0.239501968,10.4997663498,-0.086220704,-0.0021305289,0.0010652645,0.023435818,41,994.597595215,3,2051,3.34828273883E+018,3.34828273883E+018,5.6153345108,-0.000075865,-0.0824658275,0.6075734496,0.2255859375,0.451171875,-0.4833984375,0.1205971912,0.0434792079,0.0757152364,-0.1191944405,0,3.8793225288,-0.0006348053,-0.0626181364,-0.7726849914,0.580078125,-0.515625,0.064453125,-0.0926780701,0.078035228,-0.0830727518,0.0050375238,0,6.2648758888,0.0011356325,18.3712882996,3.34828273882E+018,0.0287402347,10.4518661499,-0.3832031488,-0.0330231972,0,0.011717909,40.5,994.070129395,12
1.54385355773231E+018,1425,1.543853557732E+018,,3,0,0.9512592554,-0.3771423995,6,-6,6,-6,0,3,0,0.7177737951,-0.6262856722,6,-6,6,-6,0,3,0,0.6779626012,-0.7376681566,6,-6,6,-6,0,3,0,0.6820294261,-0.721755743,6,-6,6,-6,0,3,2051,3.34828273896E+018,3.34828273896E+018,5.9947137833,0.0008701643,0.0487867296,0.8589259386,0.193359375,-0.6123046875,0.580078125,0.1548621207,0.036984086,-0.1487423182,0.1117582321,0,1.8007076979,0.0011093214,-0.044292789,-0.083896488,-0.064453125,0.064453125,0,-36,-4.7266440392,-39.8855895996,44.6122360229,0,6.025478363,0.0004439483,18.2116451263,3.34828273896E+018,0.2107617259,10.3081645966,-0.3736230731,-0.0031957934,-0.0074568512,-0.0170442313,34.5,994.76159668,3,2051,3.34828273896E+018,3.34828273896E+018,2.3387954235,0.0039785556,0.0702250972,0.6535260677,0.38671875,-0.515625,-0.2578125,0.1445017457,0.1426899433,-0.0911782309,-0.0515117124,0,0.2905587554,-0.0005498583,0.075631313,-0.708358407,-0.0966796875,0.2900390625,-0.708984375,-0.0898761749,0.0190113988,0.0665879324,-0.0855993256,0,6.0745739937,-0.1317730099,18.2976074219,3.34828273896E+018,0.3161425889,10.4518661499,-0.1341211051,0.0170442313,-0.037284255,-0.0916127414,38.5,994.991333008,3,2051,3.34828273896E+018,3.34828273896E+018,2.6847779751,0.0034084979,-0.0069936607,0.585965693,-0.7734375,-0.12890625,0,0.1124037057,-0.1109663546,0.0398900062,0.0710763484,0,4.3802075386,-0.0014892347,-0.041637253,-0.7256208658,-0.3544921875,-0.64453125,0.3544921875,-0.1324151754,-0.0377377979,-0.09173733,0.1294751316,0,6.0665588379,0.0011105345,18.2116451263,3.34828273896E+018,0.3065625131,9.9345417023,-0.4215234518,-0.011717909,-0.0085221156,-0.0692421868,41,994.595275879,3,2051,3.34828273896E+018,3.34828273896E+018,5.6157779694,0.0052404571,-0.0589250512,0.591879189,0.2578125,0.451171875,-0.3544921875,0.1128815413,0.0387706347,0.0725107491,-0.1112813801,0,3.8791427612,0.0002353233,-0.0692338869,-0.6583880186,0.4833984375,-0.451171875,0.064453125,-0.1290217489,0.1096115038,-0.1144679487,0.0048564449,0,6.2648758888,0.0010527435,18.3590087891,3.34828273896E+018,0.1532812566,10.3273248672,-0.1820214987,-0.0010652645,-0.0042610578,-0.044741109,40.5,994.071289062,12
1.54385355800148E+018,1427,1.54385355800118E+018,,3,0,0.951972723,-0.3786871135,6,-6,6,-6,0,3,0,0.7200453877,-0.626103282,6,-6,6,-6,0,3,0,0.6751084924,-0.740391016,6,-6,6,-6,0,3,0,0.6821452975,-0.72005862,6,-6,6,-6,0,3,2051,3.34828273923E+018,3.34828273923E+018,5.9951095581,-0.0001076618,0.0551841408,1.0230121613,0.12890625,-0.837890625,0.580078125,0.1379872113,0.0339017771,-0.1327965707,0.0988947898,0,1.8002762795,0.0008743582,-0.12057437,0.0012393829,-0.0966796875,0.064453125,-0.064453125,-36,-4.7324895859,-40.0657844543,44.7982749939,0,6.025478363,0.0001920387,18.1993656158,3.34828273923E+018,0.2490820438,10.4518661499,-0.5173242688,-0.0095873801,0.0159789659,-0.0021305289,34.5,994.765136719,3,2051,3.34828273923E+018,3.34828273923E+018,2.3395266533,0.0042046364,-0.0816563517,0.760045588,0.580078125,-0.38671875,-0.322265625,0.1252528876,0.1234431118,-0.0800865069,-0.0433566049,0,0.2898037434,0.0002531226,0.0664321035,-0.7583448887,0,0.38671875,-0.6767578125,-0.0760929212,0.0194615163,0.0539829358,-0.0734444484,0,6.0760836601,-0.2276657522,18.3098869324,3.34828273923E+018,0.1916015744,10.2602643967,-0.0479003936,0.0330231972,0.0074568512,-0.0031957934,38.5,994.993225098,3,2051,3.34828273923E+018,3.34828273923E+018,2.6852574348,0.0001279337,-0.0943239331,0.599529624,-0.64453125,-0.064453125,0.193359375,0.1042392254,-0.102975823,0.0356337614,0.0634422302,0,4.3797159195,-0.0044592191,-0.0471558049,-0.8202601075,-0.322265625,-0.64453125,0.4833984375,-0.1209214404,-0.0362927355,-0.0825083703,0.118801102,0,6.066534996,-0.0052231303,18.2362060547,3.34828273923E+018,0.2107617259,10.2027835846,-0.2682422102,-0.0063915867,-0.0287621394,-0.0404800475,41,994.595092773,3,2051,3.34828273923E+018,3.34828273923E+018,5.6165571213,0.003641081,0.0469928645,0.6577137113,0.2255859375,0.2900390625,-0.5478515625,0.10412433,0.0326192304,0.0695263296,-0.1016572714,0,3.8787472248,-0.0004829585,0.0385321267,-0.6629775167,0.580078125,-0.3544921875,0.0322265625,-0.1167442352,0.0983859152,-0.104419589,0.0060336702,0,6.2648758888,0.0005850919,18.3712882996,3.34828273923E+018,0.2299218774,9.8291606903,0.0958007872,0,-0.0468716361,0.0181094967,40.5,994.073425293,12
1.54385355813612E+018,1428,1.54385355813589E+018,,3,0,1.3237073422,-0.9209663868,6,-6,6,-6,0,3,0,0.8261567354,-1.3608988524,6,-6,6,-6,0,3,0,0.7502312064,-1.524713397,6,-6,6,-6,0,3,0,0.8287332058,-1.4228132963,6,-6,6,-6,0,3,2051,3.34828273936E+018,3.34828273936E+018,5.9959125519,0.067527324,-0.1098542586,1.2357369661,0.451171875,-0.90234375,0.7412109375,0.2450091392,0.060047511,-0.2361299545,0.1760821491,0,1.7997130156,-0.0407942347,-0.6665707231,-0.7278792262,-0.9990234375,0.2255859375,0.193359375,-36,-4.8783502579,-40.0970497131,44.9753990173,0,6.025478363,0.0003813601,18.1993656158,3.34828273936E+018,0.1341211051,10.0878229141,-0.4119433761,0.062850602,-0.0585895441,-0.0436758436,34.5,994.764587402,3,2051,3.34828273936E+018,3.34828273936E+018,2.3408207893,0.1146089211,-0.0798702464,0.8130424619,0.64453125,-0.38671875,-0.322265625,0.1949917227,0.1919906288,-0.12575306,-0.0662375689,0,0.2880300879,-0.1606184393,-0.0583122671,-1.3601508141,0.2900390625,0.708984375,-1.1279296875,-0.2495108843,0.0641848147,0.1767151207,-0.2408999354,0,6.0761079788,0.0089004524,18.2484855652,3.34828273936E+018,0.622705102,9.7621002197,-0.584384799,0.0340884626,-0.0553937517,-0.0596548095,38.5,994.994873047,3,2051,3.34828273936E+018,3.34828273936E+018,2.6863839626,0.1001009345,0.0936066285,0.8644630909,-0.90234375,0.12890625,0.193359375,0.1271048188,-0.1437243521,0.0555138439,0.0882099718,0,4.3781342506,-0.1426876336,0.177367419,-1.2661606073,-0.2900390625,-1.095703125,0.708984375,-0.3437519372,-0.0864130706,-0.2453553379,0.3317684233,0,6.066534996,-0.004835099,18.1256828308,3.34828273936E+018,0.6993457079,9.5513381958,-0.5269043446,0.0617853403,0.0468716361,0.0298274048,41,994.599365234,3,2051,3.34828273936E+018,3.34828273936E+018,5.6180310249,0.122233294,-0.0375768021,0.7915577888,0.2255859375,0.451171875,-0.6123046875,0.1796027273,0.0613256246,0.1155624315,-0.1768880486,0,3.8771533966,-0.1523143351,-0.0219043363,-1.4602221251,1.03125,-1.03125,0.064453125,-0.2583327591,0.2225035578,-0.2251918614,0.002688311,0,6.264852047,-0.0046194918,18.3467273712,3.34828273936E+018,0,9.7333593369,-0.7089257836,0.082025364,-0.0426105782,0.0138484379,40.5,994.071899414,12
1.54385355827049E+018,1429,1.54385355827021E+018,,3,0,1.7736986876,-1.8718601465,6,-6,6,-6,0,3,0,1.2620493174,-2.4954469204,6,-6,6,-6,0,3,0,1.0974314213,-2.3943111897,6,-6,6,-6,0,3,0,1.1686775684,-2.5175261498,6,-6,6,-6,0,3,2051,3.3482827395E+018,3.3482827395E+018,6.0367560387,0.7255854607,0.0205439646,1.6210317612,0.90234375,-1.224609375,0.580078125,0.4307477176,0.2637939751,-0.4268727303,0.16307877,0,1.77769804,-0.2193791568,0.0263039283,0.1709309518,0.1611328125,0.1611328125,-0.0322265625,-36,-14.752948761,-34.3860397339,49.1389846802,0,6.0147409439,-0.3117272258,18.1502437592,3.3482827395E+018,0.0479003936,10.0111818314,-1.1783496141,0.0202400237,-0.1054611802,0.0074568512,34.5,994.765930176,3,2051,3.3482827395E+018,3.3482827395E+018,2.3785729408,0.3588880003,-0.0056438767,1.3100767136,0.8701171875,-0.4833984375,-0.90234375,0.3058083355,0.3035010695,-0.1132299602,-0.1902711093,0,0.230311811,-0.5529871583,-0.089082025,-2.5198924542,1.546875,0.322265625,-1.9658203125,-0.4840077758,0.3624964654,0.0965090841,-0.4590055346,0,6.0898895264,0.1132058948,18.2116451263,3.3482827395E+018,0.2778222859,9.7908401489,-1.0154882669,0.0245010816,0.1352885813,-0.0202400237,38.5,994.995422363,3,2051,3.3482827395E+018,3.3482827395E+018,2.7148494721,0.4305838048,-0.1008355543,1.1120927334,-0.966796875,-0.193359375,0.6123046875,0.2625560164,-0.2409133613,0.0297195911,0.2131468952,0,4.3210439682,-1.2343997955,-0.0177362598,-2.4339663982,-1.611328125,-0.7412109375,1.7080078125,-0.6445006728,-0.4292219877,-0.2024733126,0.6316952705,0,6.0832228661,0.482862711,18.0520019531,3.3482827395E+018,0.7568262219,9.8674812317,-0.8622070551,0.0692421868,0.2982740402,0.0298274048,41,994.597717285,3,2051,3.3482827395E+018,3.3482827395E+018,5.66801548,0.5110765696,-0.053329818,1.2023079395,-0.2578125,0.837890625,-0.837890625,0.2797044218,-0.0427726172,0.2608239949,-0.218051374,0,3.8333814144,-0.7388532162,0.0428189002,-2.4934945107,1.2890625,-1.998046875,0.7734375,-0.538000226,0.3039618433,-0.5367347598,0.2327729017,0,6.2602739334,0.1466193646,18.2976074219,3.3482827395E+018,1.2358301878,9.9153814316,-0.7759863734,-0.0415453129,0.0308926702,0.0287621394,40.5,994.073364258,12
1.54385355840541E+018,1430,1.54385355840514E+018,,3,0,1.2837070227,-2.0839264393,6,-6,6,-6,0,3,0,1.6695387363,-2.1407754421,6,-6,6,-6,0,3,0,1.6064025164,-2.2424509525,6,-6,6,-6,0,3,0,1.4516406059,-2.2608087063,6,-6,6,-6,0,3,2051,3.34828273963E+018,3.34828273963E+018,6.2814364433,2.5220711231,0.0574034229,1.2317012548,0.12890625,0.90234375,-0.837890625,0.6940343976,-0.0001769472,0.6012234092,-0.6010465026,0,1.5641975403,-3.0134866238,-0.0434947237,-0.1398958266,0.064453125,0.0966796875,-0.0966796875,-36,-32.767036438,49.5031547546,-16.7361183167,0,5.9629359245,0.2126893699,18.0520019531,3.34828273963E+018,-0.1341211051,9.4459571838,-1.0729688406,0.0095873801,0.0213052891,0,34.5,994.76385498,3,2051,3.34828273963E+018,3.34828273963E+018,2.560685873,1.6933240891,0.0133727454,1.6075917482,-0.64453125,1.2568359375,-0.7734375,0.5340365767,-0.2010600716,0.5310486555,-0.329988569,0,6.2588791847,-3.1336376667,-0.0828339905,-2.1804673672,-0.6767578125,-1.41796875,1.546875,-0.7995068431,-0.2319484055,-0.5475700498,0.7795184255,0,6.1386294365,0.6370266676,17.8677978516,3.34828273963E+018,0.1437011808,10.3177442551,0,-0.0511326939,0.3589941263,-0.0021305289,38.5,995.000427246,3,2051,3.34828273963E+018,3.34828273963E+018,2.8653967381,2.0732963085,0.1043216214,1.5040408373,0.1611328125,-1.41796875,0.6123046875,0.6355713606,0.2050785422,-0.6242898703,0.4192112982,0,4.0213527679,-2.7293236256,-0.1032070816,-2.247150898,0.90234375,0.4189453125,-2.0625,-0.8601136208,0.3917311132,0.4786539674,-0.8703851104,0,6.1641044617,0.4083638787,17.8923587799,3.34828273963E+018,-0.8238867521,9.3884773254,-1.4178515673,0.0159789659,0.2524676621,0.0948085338,41,994.598632812,3,2051,3.34828273963E+018,3.34828273963E+018,5.8473548889,2.2922027111,0.1324313432,1.409794569,-1.095703125,0.322265625,0.837890625,0.6453869343,-0.5995514989,0.0923033953,0.5012742281,0,3.5720989704,-2.4975287914,-0.0394179337,-2.1519687176,-1.5146484375,1.5146484375,0.2578125,-0.7867774367,-0.7180362344,0.6376973391,0.0803388953,0,0.0287166387,0.304084152,18.1993656158,3.34828273963E+018,-1.0346485376,10.2602643967,-1.3124707937,0.0319579318,0.1246359423,0.0181094967,40.5,994.072814941,12
1.54385355854011E+018,1431,1.54385355853986E+018,,3,0,1.6787173748,-1.3834131956,6,-6,6,-6,0,3,0,1.7017025948,-2.139993906,6,-6,6,-6,0,3,0,1.5555704832,-1.8468825817,6,-6,6,-6,0,3,0,0.8288220763,-2.1867165566,6,-6,6,-6,0,3,2051,3.34828273977E+018,3.34828273977E+018,0.4088388383,3.8569116592,0.1542775184,1.6187337637,1.03125,-1.224609375,0.2900390625,0.9631644487,0.7731847167,-0.8841334581,0.1109487414,0,1.0376983881,-5.127122879,-0.0457747355,0.0643098429,0.1611328125,0.064453125,0,-36,-49.7812271118,18.2232608795,31.5579662323,0,6.013302803,0.6860784292,17.9783191681,3.34828273977E+018,-0.0191601571,10.5093460083,-0.3832031488,0.089482218,0.2514024079,0.0202400237,34.5,994.76373291,3,2051,3.34828273977E+018,3.34828273977E+018,2.9468638897,3.7050025463,-0.042141296,1.7800199986,1.2568359375,-1.224609375,-0.3544921875,0.9736554027,0.8701936603,-0.8598179817,-0.0098329484,0,5.7626919746,-3.7887849808,0.0746066198,-2.259360075,1.5146484375,-1.67578125,-0.2578125,-0.9596295953,0.8531723619,-0.807272315,-0.0459000766,0,6.2086114883,0.0019991982,17.8186759949,3.34828273977E+018,-0.2778222859,8.9190530777,-0.9771680236,-0.0213052891,0.0362189934,-0.0394147858,38.5,994.995117188,3,2051,3.34828273977E+018,3.34828273977E+018,3.2727706432,3.4591464996,0.0361757688,1.6428287029,-1.546875,0.6123046875,0.064453125,0.9173904061,-0.8678444028,0.6998143792,0.1680300236,0,3.5650980473,-4.4088921547,0.0008726862,-1.6881186962,-1.482421875,0.90234375,-0.193359375,-1.0477763414,-1.0515453816,0.7402245402,0.3113208413,0,6.194580555,0.6631454229,17.8432369232,3.34828273977E+018,0.5173242688,10.1836233139,-1.5040723085,0.1150485575,0.245010823,0.037284255,41,994.59954834,3,2051,3.34828273977E+018,3.34828273977E+018,0.0021703166,4.2968559265,-0.008503654,0.820721209,-0.0322265625,0.580078125,-0.580078125,0.9071910381,-0.0336451642,0.8020151258,-0.7683699727,0,3.1472785473,-4.1141085625,-0.0954567716,-2.1400327683,0.12890625,-1.41796875,1.611328125,-1.0793397427,0.0412828252,-0.944888413,0.9036056399,0,0.0226046834,-0.009425425,18.1379642487,3.34828273977E+018,-0.2682422102,9.7237796783,-0.6706054807,0.1033306494,0.011717909,-0.0053263223,40.5,994.073608398,12
1.54385355867445E+018,1432,1.54385355867413E+018,,3,0,1.7274405956,-0.9703859687,6,-6,6,-6,0,3,0,1.2705311775,-1.7842146158,6,-6,6,-6,0,3,0,1.2274183035,-1.5734856129,6,-6,6,-6,0,3,0,0.5483970046,-2.1212902069,6,-6,6,-6,0,3,2051,3.3482827399E+018,3.3482827399E+018,0.9941006303,5.0220093727,0.0562391318,1.6709336042,0.708984375,-1.3212890625,0.7412109375,1.1867052317,0.585369885,-1.1866569519,0.6012870073,0,0.3280734122,-5.7133054733,0.0979117006,-0.0597313978,-0.0322265625,0.12890625,0.064453125,-36,-39.9118385315,46.5959014893,-6.6840610504,0,6.0648617744,0.4145184755,17.9291992188,3.3482827399E+018,-0.5077441335,10.0782423019,-0.6514453292,0.0042610578,0.0596548095,0.0010652645,34.5,994.765869141,3,2051,3.3482827399E+018,3.3482827399E+018,3.571625948,5.0609331131,-0.1615986079,1.3938820362,1.095703125,-0.837890625,-0.2578125,1.0973621607,0.9340705872,-0.9891529679,0.0550823808,0,5.1431002617,-4.9861769676,0.0045914915,-1.7445962429,1.224609375,-1.255859375,-0.2578125,-1.1495714188,1.0570651293,-0.9197936058,-0.1372715533,0,6.2086114883,0.0058007184,17.8432369232,3.3482827399E+018,0.7089257836,9.4842777252,-0.3736230731,-0.0532632247,0.0436758436,0.0330231972,38.5,994.993713379,3,2051,3.3482827399E+018,3.3482827399E+018,3.85187006,4.9957580566,0.0607947148,1.1368303299,-0.837890625,0.708984375,-0.451171875,1.0978913307,-0.7192330956,1.0856779814,-0.3664448559,0,2.9416151047,-5.1303277016,0.0041311667,-1.4882382155,-1.2890625,0.8056640625,-0.064453125,-1.1396151781,-1.1454701424,0.7766359448,0.3688341975,0,6.2264857292,0.0314437188,17.8309574127,3.3482827399E+018,1.2166699171,10.0590820312,-0.086220704,-0.0138484379,0.0415453129,-0.0873516873,41,994.597717285,3,2051,3.3482827399E+018,3.3482827399E+018,0.6113890409,5.1450123787,-0.115181312,0.6738470197,0.0966796875,0.580078125,-0.38671875,0.9597283602,0.1447147876,0.7494136691,-0.8941285014,0,2.5426871777,-4.9780416489,0.092600219,-2.0995278359,0.580078125,-1.67578125,1.1279296875,-1.2280892134,0.3315203488,-1.1792219877,0.8538795114,0,0.0226046834,0.0068854392,18.1134033203,3.3482827399E+018,0.6131250262,10.7775878906,-0.5556445718,0.0564590171,0.0010652645,-0.0223705545,40.5,994.071594238,12
1.54385355880945E+018,1433,1.5438535588092E+018,,3,0,1.2135744095,-0.7212185264,6,-6,6,-6,0,3,0,0.964658618,-1.1822963953,6,-6,6,-6,0,3,0,1.0560545921,-1.5107628107,6,-6,6,-6,0,3,0,0.5363051891,-1.651057601,6,-6,6,-6,0,3,2051,3.34828274004E+018,3.34828274004E+018,1.763104558,6.3031563759,-0.0268746503,1.3135055304,0.966796875,-0.193359375,-0.8701171875,1.2755196095,1.1973403692,-0.2179375589,-0.9794027805,0,5.7913064957,-6.809879303,0.0749998838,-0.0246208608,0.0966796875,0.0966796875,0,-36,42.4715194702,2.3032474518,-44.7747650146,0,6.0694637299,0.0004204972,17.9414787292,3.34828274003E+018,0.1149609387,10.7680082321,1.6956739426,0.0916127414,0.0031957934,-0.035153728,34.5,994.763977051,3,2051,3.34828274004E+018,3.34828274004E+018,4.3232822418,6.2447800636,-0.0344795696,0.9640247822,0.4189453125,0.1611328125,-0.8701171875,1.338779211,1.1098176241,0.1344413757,-1.2442589998,0,4.3719601631,-6.3118963242,-0.124319993,-1.096529603,-0.38671875,-0.6123046875,0.837890625,-1.293145895,-0.3504935801,-0.9027559161,1.253249526,0,6.2237176895,-0.0042029358,17.9537601471,3.34828274003E+018,-0.5748047233,9.5417585373,-1.5807129145,0.0585895441,-0.0308926702,-0.0074568512,38.5,994.992004395,3,2051,3.34828274004E+018,3.34828274004E+018,4.5966949463,5.9480490685,0.0209574345,1.0110177994,-1.0634765625,-0.0966796875,0.451171875,1.1854531765,-1.1452687979,0.2772867084,0.8679820895,0,2.202824831,-5.7383389473,-0.1609617621,-1.4990416765,-0.12890625,0.8056640625,-1.3212890625,-1.2787063122,-0.2826656699,1.2403998375,-0.957734108,0,6.2264857292,-0.0042080483,17.9414787292,3.34828274003E+018,0.4023633003,9.2543554306,-1.5807129145,-0.0532632247,-0.023435818,-0.0063915867,41,994.598999023,3,2051,3.34828274004E+018,3.34828274004E+018,1.3492406607,5.8588438034,-0.0186586026,0.47979334,-0.2578125,0.4189453125,0.0322265625,1.1321042776,-0.8966206312,1.0469771624,-0.1503565311,0,1.7893867493,-6.2011556625,-0.1913159788,-1.6529159546,-1.095703125,0.12890625,1.2568359375,-1.2963835001,-1.0835556984,-0.0994224548,1.1801038981,0,0.0348495655,0.0368911773,18.1256828308,3.34828274003E+018,0.172441408,10.6626272202,-0.3927832246,-0.0319579318,0.089482218,0.0724379867,40.5,994.073181152,12
1.54385355894406E+018,1434,1.54385355894381E+018,,3,0,1.12546134,-0.6962667108,6,-6,6,-6,0,3,0,1.1257380247,-1.3408581018,6,-6,6,-6,0,3,0,0.756757617,-1.1934410334,6,-6,6,-6,0,3,0,0.4073309302,-1.7141605616,6,-6,6,-6,0,3,2051,3.34828274017E+018,3.34828274017E+018,2.6377537251,6.9420022965,-0.2379296422,1.0718048811,-0.90234375,0.515625,0.3544921875,1.4337660074,-1.3641104698,1.0644870997,0.2996233702,0,4.8681564331,-7.5662789345,0.0455711,0.0005980507,0.1611328125,0.12890625,0.193359375,-36,-36.4595184326,-11.9010295868,48.3605499268,0,6.0725317001,0.0013581056,17.9414787292,3.34828274017E+018,0.6610254049,10.6817874908,5.6714062691,-0.0266316123,0.0660463944,-0.023435818,34.5,994.764709473,3,2051,3.34828274017E+018,3.34828274017E+018,5.1972799301,6.3170099258,0.0880477726,1.1432549954,-0.90234375,0.451171875,0.5478515625,1.3569655418,-1.3728888035,0.7065578699,0.6663309336,0,3.5003802776,-6.6963057518,-0.0523327403,-1.389595747,-0.4833984375,1.095703125,-0.708984375,-1.3328003883,-0.5858720541,1.3297052383,-0.7410302758,0,6.2222075462,0.00037988,17.9291992188,3.34828274017E+018,1.4849121571,9.2830963135,-1.8681153059,-0.0873516873,-0.0649811327,-0.0458063707,39,994.996337891,3,2051,3.34828274017E+018,3.34828274017E+018,5.4430718422,6.7784333229,0.0617422797,0.7308473587,0.2578125,-0.7734375,-0.1611328125,1.3752528429,1.0843845606,-1.2898566723,0.2054721117,0,1.358530283,-6.7207784653,0.1775079519,-1.208373189,0.580078125,-1.1279296875,-0.2255859375,-1.3670278788,1.2843959332,-1.0946296454,-0.1897663176,0,6.2310872078,-0.0050788447,17.7695560455,3.34828274017E+018,0.239501968,9.8866415024,0.7855664492,0.1054611802,0.0340884626,0.0330231972,41,994.597717285,3,2051,3.34828274017E+018,3.34828274017E+018,2.1895773411,6.5545377731,-0.0520819351,0.5444100499,0.064453125,-0.322265625,0.451171875,1.2209398747,-0.1341853142,-0.9839684963,1.1181538105,0,0.9392350316,-6.6477952004,0.12263491,-1.6638231278,0.064453125,1.1923828125,-1.16015625,-1.4197456837,0.0514907613,1.2029774189,-1.2544682026,0,0.0423187353,0.0010403044,18.0765628815,3.34828274017E+018,0.546064496,10.0303421021,0.718505919,0.0639158636,0.0245010816,0.011717909,40.5,994.073364258,12
1.54385355907841E+018,1435,1.54385355907812E+018,,3,0,1.2667533159,-0.6386088133,6,-6,6,-6,0,3,0,0.8006414175,-1.5034105778,6,-6,6,-6,0,3,0,0.7370886207,-1.046105504,6,-6,6,-6,0,3,0,0.645168066,-1.558734417,6,-6,6,-6,0,3,2051,3.34828274031E+018,3.34828274031E+018,3.5843446255,7.1933579445,-0.1328743994,1.3456749916,1.16015625,-0.8056640625,-0.38671875,1.3961424828,1.3322088718,-1.0288534164,-0.3033554256,0,3.8623600006,-7.4405546188,0.0727653056,0.0548939258,0,0.064453125,-0.064453125,-36,50.0092887878,-19.3624973297,-30.6467914581,0,6.0860829353,0.3714752197,17.9046382904,3.3482827403E+018,0.0574804693,10.2219438553,-1.2549903393,-0.0245010816,0.0607200749,0.0074568512,34.5,994.76550293,3,2051,3.34828274031E+018,3.34828274031E+018,6.1433615685,7.0451622009,-0.1561553925,0.9620475769,0.7412109375,-0.1611328125,-0.6123046875,1.332267642,1.348601222,-0.6556912065,-0.6929100156,0,2.5611960888,-6.7236599922,0.1786144972,-1.4538667202,0.451171875,-1.41796875,0.2900390625,-1.4515334368,0.6673054695,-1.4500004053,0.7826949358,0,6.2252755165,0.0654950887,17.8923587799,3.3482827403E+018,-0.6897656322,10.2027835846,-0.5748047233,-0.1097222418,-0.0213052891,0.0340884626,39,994.993347168,3,2051,3.34828274031E+018,3.34828274031E+018,0.0814118385,7.1904287338,0.0951218605,0.7954589128,-0.708984375,0.3544921875,-0.515625,1.3825541735,-0.8796462417,1.3770118952,-0.4973656237,0,0.4405985475,-7.3463511467,0.0348305181,-0.9411193728,-0.9990234375,0.2900390625,1.21222854929E-38,-1.4590190649,-1.4618768692,0.9205947518,0.5412821174,0,6.2326455116,0.0010531789,17.8063964844,3.3482827403E+018,0.7568262219,9.1968755722,-1.4657520056,0.0521979593,0.0511326939,0.0735032484,41,994.596374512,3,2051,3.34828274031E+018,3.34828274031E+018,3.1052651405,6.5891990662,0.0966105983,0.5974241495,0.2900390625,0.2900390625,-0.451171875,1.3282737732,0.4689140618,0.8373073936,-1.3062233925,0,0.0133167217,-7.0964074135,-0.0774288028,-1.6679675579,0.12890625,-1.224609375,1.1279296875,-1.46197927,0.1883837879,-1.3497458696,1.161362052,0,0.043852713,0.001041241,18.0765628815,3.3482827403E+018,1.1975097656,9.8770608902,-3.1805860996,-0.0223705545,0.0394147858,0.0330231972,40.5,994.07232666,12
1.5438535592132E+018,1436,1.54385355921292E+018,,3,0,1.095557332,-0.3163768351,6,-6,6,-6,0,3,0,0.7296336889,-1.1055933237,6,-6,6,-6,0,3,0,0.591249764,-0.9169282317,6,-6,6,-6,0,3,0,0.259968549,-1.4296249151,6,-6,6,-6,0,3,2051,3.34828274044E+018,3.34828274044E+018,4.5729374886,7.8070001602,-0.0460476577,1.1708103418,-0.966796875,0.2578125,0.6123046875,1.5003238916,-1.4758917093,0.5045280457,0.9713636637,0,2.8093607426,-8.0567407608,-0.0511136651,0.0601540953,0.1611328125,0.064453125,0.1611328125,-36,-28.2379150391,50.2799987793,-22.0420837402,0,6.0922427177,0.0054002148,17.9414787292,3.34828274044E+018,-0.0383203141,10.5189266205,-0.1820214987,0.0479369015,0.0063915867,-0.0639158636,34.5,994.766723633,3,2051,3.34828274044E+018,3.34828274044E+018,0.8485308886,7.4589681625,-0.2461451739,0.7829822302,-0.515625,-0.38671875,0.5478515625,1.448420167,-1.3045496941,0.0722476244,1.2323020697,0,1.571828723,-7.4903216362,0.0820904374,-0.98074615,-0.12890625,0.6767578125,-0.708984375,-1.5094842911,0.008813356,1.3029773235,-1.3117907047,0,6.2283434868,0.0430646203,17.8309574127,3.34828274044E+018,0.0958007872,9.3214168549,-0.7855664492,-0.0255663469,0.044741109,0.0404800475,39,994.991271973,3,2051,3.34828274044E+018,3.34828274044E+018,1.049834609,7.73736763,-0.0710321367,0.7997026443,0.3544921875,-0.7734375,-0.322265625,1.472340107,1.2103728056,-1.3468697071,0.1364969611,0,5.7510476112,-7.7482771874,0.2428120673,-0.9855196476,0.451171875,-0.90234375,-0.0966796875,-1.4995793104,1.3444914818,-1.2738928795,-0.0705986619,0,6.2341794968,0.00063856,17.781835556,3.34828274044E+018,-0.2490820438,9.6183986664,-1.561552763,0.0766990408,0.0159789659,-0.0149137024,41,994.597717285,3,2051,3.34828274044E+018,3.34828274044E+018,4.0710601807,7.2310967445,0.0747959241,0.2396012098,-0.064453125,-0.0966796875,0.2255859375,1.3496676683,-0.178354606,-1.0694007874,1.2477552891,0,5.3175048828,-7.4643993378,0.2102373391,-1.5191257,0.193359375,0.9990234375,-1.095703125,-1.5135750771,0.3188563883,1.1222974062,-1.4411538839,0,0.0469206758,0.0009539455,18.0765628815,3.34828274044E+018,0.105380863,10.6434669495,1.1591894627,0.0926780105,-0.0010652645,-0.0426105782,40.5,994.072143555,12
1.54385355934809E+018,1437,1.54385355934783E+018,,3,0,1.1318151951,-0.2262078822,6,-6,6,-6,0,3,0,0.5843092203,-0.7035900354,6,-6,6,-6,0,3,0,0.4347191155,-0.9172022343,6,-6,6,-6,0,3,0,0.2205019593,-1.4673582315,6,-6,6,-6,0,3,2051,3.34828274058E+018,3.34828274058E+018,5.6050777435,7.5967912674,0.1016255841,1.1157509089,0.580078125,0.4833984375,-0.837890625,1.5205323696,0.7317371368,0.7884728909,-1.5202100277,0,1.717366457,-8.3772192001,-0.0157608949,-0.0678084642,0,0.0966796875,0.064453125,-36,-39.5028457642,-7.3726348877,46.8754806519,0,6.0968446732,0.018239988,17.9414787292,3.34828274057E+018,1.0921289921,10.2794246674,0.450263679,0.0213052891,0.0106526446,-0.0245010816,34.5,994.764099121,3,2051,3.34828274058E+018,3.34828274058E+018,1.8780453205,7.990008831,0.0283988863,0.7329012752,-0.0322265625,0.38671875,-0.64453125,1.495474577,0.3762096465,1.0875393152,-1.4637490511,0,0.5398238301,-7.9060268402,0.0860618576,-0.6144459844,-0.451171875,-0.2578125,0.38671875,-1.4700900316,-1.1638884544,-0.1966169477,1.3743066788,0,6.2344794273,0.0018592059,17.9291992188,3.34828274057E+018,2.5387208462,9.8195800781,-0.0383203141,0.0937432721,0.0276968759,0.0191747602,39,994.993286133,3,2051,3.34828274058E+018,3.34828274058E+018,2.0611414909,7.6715092659,0.0302062389,0.3961585164,-0.580078125,-0.12890625,-0.064453125,1.3911883831,-1.4014687538,0.6314337254,0.7700350285,0,4.73239851,-7.6175365448,0.1554578841,-0.8220669627,-0.515625,0.4189453125,-0.6767578125,-1.4902608395,-0.5140841007,1.4843147993,-0.9702306986,0,6.2357134819,0.0008685444,17.8800773621,3.34828274057E+018,0.584384799,11.5631551743,1.7052539587,-0.0213052891,-0.0735032484,0.0138484379,41,994.600341797,3,2051,3.34828274058E+018,3.34828274058E+018,5.0806083679,7.5373969078,0.1416267306,0.2870739996,0.064453125,0.322265625,-0.12890625,1.3964673281,-0.7378656268,1.3958799839,-0.6580142975,0,4.3033137322,-7.5031394959,0.0909859017,-1.3598825932,-0.90234375,-0.193359375,1.3212890625,-1.5864853859,-1.2874860764,-0.1590598822,1.4465459585,0,0.0499886386,0.0034223865,18.1134033203,3.34828274057E+018,0.3257226646,9.6279792786,-4.5984377861,-0.0500674285,-0.0085221156,0.0511326939,40.5,994.072998047,12
1.54385355948232E+018,1438,1.54385355948204E+018,,3,0,1.1861981154,-0.4320046604,6,-6,6,-6,0,3,0,0.6040112376,-0.9626719356,6,-6,6,-6,0,3,0,0.5358825922,-1.0371422768,6,-6,6,-6,0,3,0,0.1906937957,-1.3973281384,6,-6,6,-6,0,3,2051,3.34828274071E+018,3.34828274071E+018,0.3765638173,7.7571454048,-0.1746878773,1.2208958864,0.708984375,-0.966796875,0.2900390625,1.5010083914,0.8823815584,-1.4927713871,0.6103897691,0,0.6129055023,-8.1688222885,0.0044913418,-0.1146050692,0.12890625,0.064453125,0.2255859375,-36,29.1822929382,-50.2099685669,21.0275802612,0,6.0999126434,0.0032678463,17.9414787292,3.34828274071E+018,0.3161425889,9.7333593369,-1.0729688406,-0.0330231972,0.0383495204,-0.0330231972,34.5,994.763427734,3,2051,3.34828274071E+018,3.34828274071E+018,2.9248454571,7.7775073052,0.1289802194,0.580647409,0.4189453125,-0.4189453125,-0.1611328125,1.5027216673,1.1320153475,-1.4397928715,0.307777524,0,5.7750616074,-7.8385839462,0.2024122477,-1.092479229,0.7734375,-0.708984375,-0.4189453125,-1.478812933,1.3679250479,-1.171292901,-0.1966321468,0,6.2344555855,-0.0053568566,17.9291992188,3.34828274071E+018,1.1783496141,11.0170898438,0.0670605525,-0.0138484379,-0.0287621394,-0.0223705545,39,994.992492676,3,2051,3.34828274071E+018,3.34828274071E+018,3.0906283855,7.7195158005,0.1885216534,0.4447231889,0.12890625,-0.12890625,-0.5478515625,1.4349519014,0.8350914121,0.6018525362,-1.4369438887,0,3.6934752464,-7.7944173813,-0.0083264131,-1.1128963232,-0.6767578125,-0.38671875,0.5478515625,-1.5550358295,-0.9225512743,-0.6391538978,1.5617051125,0,6.2387814522,0.0007253058,17.8309574127,3.34828274071E+018,1.4561719894,11.0170898438,1.2741504908,-0.0287621394,-0.0511326939,-0.0532632247,41,994.600158691,3,2051,3.34828274071E+018,3.34828274071E+018,6.1182541847,7.7153425217,-0.068137385,0.1311933994,0.0966796875,-0.064453125,-0.064453125,1.3569283485,1.3545730114,-0.7484090328,-0.6061639786,0,3.2693214417,-7.6434936523,-0.0244433116,-1.258105278,0.9990234375,-0.7412109375,-0.193359375,-1.5769113302,1.4957911968,-1.1821738482,-0.3136173487,0,0.0514986515,-0.0046061841,18.0765628815,3.34828274071E+018,0.3832031488,9.7908401489,1.8585352898,-0.0521979593,-0.0042610578,0.0213052891,40.5,994.071960449,12
1.54385355961706E+018,1439,1.54385355961681E+018,,3,0,1.0243794918,-0.208937481,6,-6,6,-6,0,3,0,0.639439702,-1.042773962,6,-6,6,-6,0,3,0,0.6148580313,-1.0142416954,6,-6,6,-6,0,3,0,0.2572539747,-1.456616044,6,-6,6,-6,0,3,2051,3.34828274084E+018,3.34828274084E+018,1.4381481409,8.2602071762,-0.0234673303,1.0363351107,-0.7734375,0.2578125,0.64453125,1.5787065029,-1.5237327814,0.4030789733,1.1206538677,0,5.7835659981,-8.3611240387,0.0550309904,0.1072896421,-0.064453125,0,0,-36,44.576877594,-1.85247612,-42.7244033813,0,6.1074085236,0.0023823606,17.9046382904,3.34828274084E+018,0.0479003936,9.455537796,0.2011816502,0.0404800475,-0.044741109,0.0276968759,34.5,994.762939453,3,2051,3.34828274084E+018,3.34828274084E+018,3.9916143417,7.9859642983,-0.2400218844,0.7413334847,-0.451171875,-0.3544921875,0.5478515625,1.5323773623,-1.3607091904,0.0389157534,1.321793437,0,4.7102394104,-7.801882267,0.0615013167,-1.0243432522,-0.0966796875,0.6767578125,-0.7734375,-1.5691876411,0.0504856333,1.33306849,-1.383554101,0,6.2344794273,0.0005480869,17.9169178009,3.34828274084E+018,-0.0095800785,9.2830963135,-1.0921289921,-0.011717909,0.0223705545,-0.0202400237,39,994.99395752,3,2051,3.34828274084E+018,3.34828274084E+018,4.1259036064,7.7441501617,-0.1865735799,0.6814552546,0.2255859375,-0.708984375,0.064453125,1.4552246332,0.4435207248,-1.4301832914,0.9866625071,0,2.6513395309,-7.5647301674,0.1690835655,-0.9990760684,0.515625,-0.7412109375,-0.708984375,-1.5384844542,1.5573893786,-0.8205495477,-0.7368398309,0,6.2448754311,-0.0005153996,17.7941150665,3.34828274084E+018,0.0479003936,9.5034379959,-0.6322851777,0.0223705545,0.0191747602,0.0245010816,41,994.600769043,3,2051,3.34828274084E+018,3.34828274084E+018,0.875770092,7.8284163475,0.0074829231,0.2669370472,-0.0966796875,-0.0322265625,0.2578125,1.4005614519,-0.876336813,-0.5080193281,1.3843561411,0,2.2307600975,-7.6600584984,0.0779983774,-1.37611866,-0.322265625,1.224609375,-0.580078125,-1.604006052,-0.4748287499,1.5643386841,-1.089509964,0,0.0530565977,0.001052629,18.0642814636,3.34828274084E+018,0.1916015744,8.8136720657,0.5173242688,-0.0287621394,-0.0841558948,-0.0479369015,40.5,994.071166992,12
1.54385355975145E+018,1440,1.54385355975114E+018,,3,0,1.0666900873,-0.3039068878,6,-6,6,-6,0,3,0,0.3265762031,-0.7662005425,6,-6,6,-6,0,3,0,0.4893978238,-0.2044868469,6,-6,6,-6,0,3,0,0.0907503441,-1.0878560543,6,-6,6,-6,0,3,2051,3.34828274098E+018,3.34828274098E+018,2.5311443806,8.0570573807,-0.2279710919,1.10635221,-0.2900390625,0.966796875,-0.515625,1.5671659708,-0.2891618311,1.4784904718,-1.1893285513,0,4.6464705467,-8.2542047501,-0.0801829174,0.0820077881,-0.0322265625,-0.064453125,0.2900390625,-36,-5.6462860107,46.2180671692,-40.5717811584,0,6.1074085236,0.0002301185,17.9783191681,3.34828274098E+018,-1.599873066,10.0878229141,0.2299218774,0.011717909,-0.0308926702,0.035153728,34.5,994.762878418,3,2051,3.34828274098E+018,3.34828274098E+018,5.0840420723,8.1634187698,0.152747348,0.30831936,0.064453125,0.0966796875,-0.3544921875,1.4634077549,-0.6161172986,1.4735239744,-0.8574067354,0,3.6209437847,-8.3034763336,-0.0121436203,-0.7117916942,-0.64453125,0.193359375,0.2578125,-1.6052929163,-1.600053668,0.6881045699,0.9119490981,0,6.2359952927,0.0314759463,18.0274410248,3.34828274098E+018,-3.3338673115,11.9942579269,-1.0154882669,0.0255663469,-0.0149137024,0.0660463944,39,994.990112305,3,2051,3.34828274098E+018,3.34828274098E+018,5.1917095184,8.0470294952,-0.2343194783,0.4941520691,-0.6767578125,-0.2900390625,0.0966796875,1.4627132416,-1.4741841555,0.7931953669,0.6624311805,0,1.5943983793,-7.1475310326,-0.1417660713,-0.0830902606,-0.193359375,-0.2578125,-0.4189453125,-1.575771451,-0.6293293238,1.5871384144,-0.9578091502,0,6.2463102341,0.0428340994,17.7695560455,3.34828274098E+018,-1.6190332174,9.8291606903,-0.2969824374,0.0383495204,0.0010652645,0.0074568512,41,994.598571777,3,2051,3.34828274098E+018,3.34828274098E+018,1.9346333742,7.8983669281,0.1359682828,0.0299697593,0.1611328125,0.0966796875,-0.0322265625,1.4429056644,-0.6556402445,1.4413824081,-0.7857421041,0,1.1673532724,-7.975962162,-0.0191761144,-1.1500912905,-0.64453125,0,0.9345703125,-1.5756841898,-1.2391571999,-0.2233729959,1.4625301361,0,0.0576345734,0.2400657535,18.1379642487,3.34828274098E+018,0.2203418016,10.3560647964,-1.6956739426,0.0106526446,-0.0138484379,-0.0319579318,40.5,994.072753906,12
1.5438535598861E+018,1441,1.54385355988582E+018,,3,0,1.1781880856,-0.1896859258,6,-6,6,-6,0,3,0,0.6568306088,-1.1641740799,6,-6,6,-6,0,3,0,0.5558119416,-0.7192642689,6,-6,6,-6,0,3,0,0.0283523947,-1.1818681955,6,-6,6,-6,0,3,2051,3.34828274111E+018,3.34828274111E+018,3.6222810745,7.6773056984,0.1521279067,1.2396720648,1.03125,-0.4189453125,-0.5478515625,1.556866765,1.5535075665,-0.6809743047,-0.8725332618,0,3.5069954395,-8.5139741898,0.0438090824,0.1583740711,0.064453125,-0.0966796875,0.12890625,-36,-48.3984336853,36.3911514282,12.0072803497,0,6.1089425087,0.0005047299,17.990234375,3.34828274111E+018,0.4981640875,9.9632816315,0.546064496,-0.0724379867,-0.0042610578,0.0458063707,34.5,994.765014648,3,2051,3.34828274111E+018,3.34828274111E+018,6.1713347435,7.7717814446,-0.0012200873,0.571049571,0.38671875,-0.064453125,-0.4189453125,1.5670800209,1.4969190359,-0.3094089329,-1.1875101328,0,2.5433466435,-7.8304748535,0.0606657267,-1.0924184322,0.12890625,-1.0634765625,0.38671875,-1.5720373392,0.455974251,-1.5308872461,1.0749129057,0,6.2344284058,0.0004809876,17.9783191681,3.34828274111E+018,0.9101074338,10.1453027725,-0.1628613323,-0.0671116635,-0.0319579318,-0.0404800475,39,994.990844727,3,2051,3.34828274111E+018,3.34828274111E+018,6.2601313591,8.0040626526,-0.0917502046,0.5636299849,-0.2255859375,0.12890625,-0.6767578125,1.4765944481,0.5221433043,0.9462966919,-1.4684400559,0,0.5295032859,-8.0739469528,-0.148096174,-0.7217085361,-0.708984375,-0.0322265625,0.2578125,-1.5182510614,-1.1792769432,-0.2511197329,1.4303966761,0,6.2433142662,-0.3739266396,17.8923587799,3.34828274111E+018,2.9219238758,10.8925495148,5.2786231041,-0.044741109,-0.0298274048,-0.0585895441,41,994.599243164,3,2051,3.34828274111E+018,3.34828274111E+018,2.9904990196,8.0628614426,-0.0338773951,0.1866943687,0.1611328125,-0.0322265625,-0.0966796875,1.3616166115,1.3602439165,-0.6242713928,-0.7359725237,0,0.1014434695,-7.8745365143,-0.0524826422,-1.2100923061,0.8701171875,-0.837890625,0.12890625,-1.6048617363,1.3586409092,-1.4190762043,0.0604352951,0,0.0590756759,0.0009069246,18.1256828308,3.34828274111E+018,-0.6514453292,9.8962211609,0.0191601571,-0.0330231972,-0.0639158636,0.044741109,40.5,994.072509766,12
