%time,field.header.seq,field.header.stamp,field.header.frame_id,field.commands0.command1,field.commands0.command2,field.commands0.setpoint1,field.commands0.setpoint2,field.commands0.limit1_p,field.commands0.limit1_n,field.commands0.limit2_p,field.commands0.limit2_n,field.commands0.timestamp,field.commands1.command1,field.commands1.command2,field.commands1.setpoint1,field.commands1.setpoint2,field.commands1.limit1_p,field.commands1.limit1_n,field.commands1.limit2_p,field.commands1.limit2_n,field.commands1.timestamp,field.commands2.command1,field.commands2.command2,field.commands2.setpoint1,field.commands2.setpoint2,field.commands2.limit1_p,field.commands2.limit1_n,field.commands2.limit2_p,field.commands2.limit2_n,field.commands2.timestamp,field.commands3.command1,field.commands3.command2,field.commands3.setpoint1,field.commands3.setpoint2,field.commands3.limit1_p,field.commands3.limit1_n,field.commands3.limit2_p,field.commands3.limit2_n,field.commands3.timestamp,field.sensors0.status1,field.sensors0.status2,field.sensors0.sensor_ts,field.sensors0.setpoint_ts,field.sensors0.encoder_1,field.sensors0.velocity_1,field.sensors0.current_1_d,field.sensors0.current_1_q,field.sensors0.current_1_u,field.sensors0.current_1_v,field.sensors0.current_1_w,field.sensors0.voltage_1,field.sensors0.voltage_1_u,field.sensors0.voltage_1_v,field.sensors0.voltage_1_w,field.sensors0.temperature_1,field.sensors0.encoder_2,field.sensors0.velocity_2,field.sensors0.current_2_d,field.sensors0.current_2_q,field.sensors0.current_2_u,field.sensors0.current_2_v,field.sensors0.current_2_w,field.sensors0.voltage_2,field.sensors0.voltage_2_u,field.sensors0.voltage_2_v,field.sensors0.voltage_2_w,field.sensors0.temperature_2,field.sensors0.encoder_pivot,field.sensors0.velocity_pivot,field.sensors0.voltage_bus,field.sensors0.imu_ts,field.sensors0.accel_x,field.sensors0.accel_y,field.sensors0.accel_z,field.sensors0.gyro_x,field.sensors0.gyro_y,field.sensors0.gyro_z,field.sensors0.temperature_imu,field.sensors0.pressure,field.sensors1.status1,field.sensors1.status2,field.sensors1.sensor_ts,field.sensors1.setpoint_ts,field.sensors1.encoder_1,field.sensors1.velocity_1,field.sensors1.current_1_d,field.sensors1.current_1_q,field.sensors1.current_1_u,field.sensors1.current_1_v,field.sensors1.current_1_w,field.sensors1.voltage_1,field.sensors1.voltage_1_u,field.sensors1.voltage_1_v,field.sensors1.voltage_1_w,field.sensors1.temperature_1,field.sensors1.encoder_2,field.sensors1.velocity_2,field.sensors1.current_2_d,field.sensors1.current_2_q,field.sensors1.current_2_u,field.sensors1.current_2_v,field.sensors1.current_2_w,field.sensors1.voltage_2,field.sensors1.voltage_2_u,field.sensors1.voltage_2_v,field.sensors1.voltage_2_w,field.sensors1.temperature_2,field.sensors1.encoder_pivot,field.sensors1.velocity_pivot,field.sensors1.voltage_bus,field.sensors1.imu_ts,field.sensors1.accel_x,field.sensors1.accel_y,field.sensors1.accel_z,field.sensors1.gyro_x,field.sensors1.gyro_y,field.sensors1.gyro_z,field.sensors1.temperature_imu,field.sensors1.pressure,field.sensors2.status1,field.sensors2.status2,field.sensors2.sensor_ts,field.sensors2.setpoint_ts,field.sensors2.encoder_1,field.sensors2.velocity_1,field.sensors2.current_1_d,field.sensors2.current_1_q,field.sensors2.current_1_u,field.sensors2.current_1_v,field.sensors2.current_1_w,field.sensors2.voltage_1,field.sensors2.voltage_1_u,field.sensors2.voltage_1_v,field.sensors2.voltage_1_w,field.sensors2.temperature_1,field.sensors2.encoder_2,field.sensors2.velocity_2,field.sensors2.current_2_d,field.sensors2.current_2_q,field.sensors2.current_2_u,field.sensors2.current_2_v,field.sensors2.current_2_w,field.sensors2.voltage_2,field.sensors2.voltage_2_u,field.sensors2.voltage_2_v,field.sensors2.voltage_2_w,field.sensors2.temperature_2,field.sensors2.encoder_pivot,field.sensors2.velocity_pivot,field.sensors2.voltage_bus,field.sensors2.imu_ts,field.sensors2.accel_x,field.sensors2.accel_y,field.sensors2.accel_z,field.sensors2.gyro_x,field.sensors2.gyro_y,field.sensors2.gyro_z,field.sensors2.temperature_imu,field.sensors2.pressure,field.sensors3.status1,field.sensors3.status2,field.sensors3.sensor_ts,field.sensors3.setpoint_ts,field.sensors3.encoder_1,field.sensors3.velocity_1,field.sensors3.current_1_d,field.sensors3.current_1_q,field.sensors3.current_1_u,field.sensors3.current_1_v,field.sensors3.current_1_w,field.sensors3.voltage_1,field.sensors3.voltage_1_u,field.sensors3.voltage_1_v,field.sensors3.voltage_1_w,field.sensors3.temperature_1,field.sensors3.encoder_2,field.sensors3.velocity_2,field.sensors3.current_2_d,field.sensors3.current_2_q,field.sensors3.current_2_u,field.sensors3.current_2_v,field.sensors3.current_2_w,field.sensors3.voltage_2,field.sensors3.voltage_2_u,field.sensors3.voltage_2_v,field.sensors3.voltage_2_w,field.sensors3.temperature_2,field.sensors3.encoder_pivot,field.sensors3.velocity_pivot,field.sensors3.voltage_bus,field.sensors3.imu_ts,field.sensors3.accel_x,field.sensors3.accel_y,field.sensors3.accel_z,field.sensors3.gyro_x,field.sensors3.gyro_y,field.sensors3.gyro_z,field.sensors3.temperature_imu,field.sensors3.pressure,field.working_count
1.54298396944528E+018,14929,1.54298396944488E+018,,3,0,0.321806252,-0.2338947952,10,-10,10,-10,0,3,0,0.2504818141,-0.3090566397,10,-10,10,-10,0,3,0,0.3211965263,-0.3158524036,10,-10,10,-10,0,3,0,0.1955739409,-0.4156244397,10,-10,10,-10,0,3,2051,24767308720,24766633440,1.8355016708,-0.0041522901,-0.0587765016,0.3307531774,0.0966796875,0.193359375,-0.064453125,0.05052156,0.0238250811,0.0266692936,-0.0504943728,0,3.6408450604,0.005021893,0.0877443254,-0.1895234883,-0.0322265625,0.064453125,0.2578125,-0.042464789,-0.0417307019,0.0134720542,0.0282586478,0,6.0799379349,0.0008731416,22.3132572174,24765778800,0.3544628918,9.8962211609,0,-0.011717909,0.0617853403,0.070307456,36.5,1009.24761963,3,2051,24767207960,24766527560,1.2516746521,-0.0024365485,-0.0924056694,0.269198209,-0.1611328125,0.12890625,-0.2578125,0.0231498722,0.003380304,0.018237479,-0.0216177814,0,1.1673249006,0.0017487489,0.0050182808,-0.1391423941,-0.193359375,-0.12890625,0.2900390625,-0.0355691053,-0.0301880836,-0.001551047,0.0317391306,0,6.0774860382,0.0004391189,22.4483394623,24765778720,0.2299218774,10.4039649963,-0.0958007872,0.0639158636,0.0010652645,-0.0159789659,37.5,1009.49682617,3,2051,24767458000,24766748720,5.5346798897,-0.0035112093,-0.1151866317,0.3971716464,-0.0322265625,-0.2578125,-0.6123046875,0.0517156869,0.0488147289,-0.0095533514,-0.0392613783,0,1.7509741783,0.0196104143,-0.0207986571,-0.3870502412,-0.4833984375,-0.064453125,0.12890625,-0.044228442,-0.0418438651,0.0076993583,0.0341445059,0,6.1364359856,0.0015744538,22.5465812683,24765778760,0.1628613323,9.9632816315,-0.2299218774,-0.0255663469,0.0106526446,0.0223705545,39,1008.8381958,3,2051,24767508720,24766805360,0.614503026,0.0093853716,0.0009564259,0.1841850132,0.0966796875,0.193359375,-0.064453125,0.0361974724,0.010982058,0.0248356294,-0.0358176865,0,0.5396569967,-0.0037523375,-0.0282096807,-0.5032852292,-0.2900390625,-0.0966796875,0.451171875,-0.0518510602,-0.040346887,-0.0080310777,0.0483779646,0,0.019374935,-0.0048371088,22.497461319,24765778720,0.2490820438,10.2602643967,-0.2203418016,-0.0010652645,-0.0585895441,-0.0138484379,40,1008.36529541,12
1.54298396958235E+018,14930,1.5429839695821E+018,,3,0,0.3168663681,-0.2327236831,10,-10,10,-10,0,3,0,0.2501263022,-0.3059552908,10,-10,10,-10,0,3,0,0.3176423013,-0.3057285249,10,-10,10,-10,0,3,0,0.1969210953,-0.4153100848,10,-10,10,-10,0,3,2051,24905308760,24904605160,1.835537672,-0.003531243,-0.0818220451,0.3182943165,0.12890625,0.2578125,-0.193359375,0.0466165021,0.0212234855,0.0253425203,-0.0628585741,0,3.6407971382,-0.0042293482,-0.0911263153,-0.0696465746,-0.0966796875,0.064453125,-0.0322265625,-0.0525967292,-0.0510381423,0.0144100673,0.0366280749,0,6.0799379349,0.0002748076,22.3009757996,24903778760,0.3544628918,10.2794246674,-0.1149609387,0.0223705545,-0.0042610578,0.0138484379,36.5,1009.24462891,3,2051,24905307840,24904500640,1.251686573,-0.0005588403,0.0555526353,0.2080920488,0.064453125,0.12890625,-0.1611328125,0.0230619721,0.0003912374,0.0197842959,-0.0201755334,0,1.1673009396,-0.0003169129,-0.069833979,-0.4503647983,-0.322265625,-0.0966796875,0.064453125,-0.0403449796,-0.0324913003,-0.0045178253,0.0370091274,0,6.0774860382,0.0002283114,22.4483394623,24903778720,0.2490820438,10.2315235138,-0.0383203141,-0.0127831735,-0.0010652645,0.0223705545,37.5,1009.49487305,3,2051,24905507920,24904732960,5.5347280502,0.000380212,0.0005039007,0.2537499666,-0.064453125,-0.2900390625,-0.4189453125,0.0574188754,0.0530785397,-0.0075415056,-0.0455370322,0,1.7508423328,-0.0009271731,-0.0070843766,-0.430695504,-0.64453125,-0.193359375,-0.064453125,-0.0315447189,-0.0293084979,0.0032215239,0.0260869749,0,6.1364359856,0.0006080773,22.5465812683,24903778800,0.4790039361,10.3177442551,-0.2874023616,0.0330231972,0.0340884626,-0.044741109,39,1008.83740234,3,2051,24905558760,24904747960,0.6144670844,0.0036440415,0.0107741551,0.2085706741,0.064453125,0.1611328125,-0.12890625,0.0236257054,0.0121313632,0.0131276995,-0.0252590626,0,0.5396689773,-0.0027387582,-0.020977553,-0.4582945704,-0.322265625,-0.064453125,0.322265625,-0.0583034717,-0.0445533618,-0.0103021227,0.0548554845,0,0.0193989035,0.0012798967,22.497461319,24903778760,-0.0095800785,10.3273248672,-0.2203418016,0.0766990408,0.0330231972,-0.0394147858,40,1008.36407471,12
1.54298396971997E+018,14931,1.54298396971977E+018,,3,0,0.3177043498,-0.2314667851,10,-10,10,-10,0,3,0,0.2499513477,-0.3105650246,10,-10,10,-10,0,3,0,0.3221367002,-0.3106266558,10,-10,10,-10,0,3,0,0.1981716007,-0.4162495434,10,-10,10,-10,0,3,2051,25042258560,25041597200,1.835549593,-0.0035250413,-0.0609493889,0.2518786788,0.064453125,0.1611328125,-0.193359375,0.0416061655,0.0187026355,0.0228503309,-0.0415529646,0,3.6407971382,0.0003236417,0.0695643872,-0.1705460399,0,0.0966796875,0.2578125,-0.0334762596,-0.0329250805,0.0107213203,0.0276634656,0,6.0799379349,0.0005800763,22.3009757996,25040279080,0.2778222859,10.3943853378,-0.0191601571,0.0415453129,-0.0223705545,0.0266316123,37,1009.24609375,3,2051,25042257760,25041550800,1.251650691,-0.0029058966,-0.1164784655,0.2223457843,-0.1611328125,0.12890625,-0.193359375,0.0323369838,0.0030090269,0.0264048129,-0.0294138417,0,1.1673488617,-0.0005451773,0.0335027352,-0.2127556056,-0.193359375,-0.12890625,0.0966796875,-0.0535838716,-0.0451207943,-0.0029006284,0.0480214208,0,6.0774621964,-0.0048901294,22.4483394623,25040279040,0.1149609387,10.4997663498,-0.2490820438,0.0266316123,0,-0.0042610578,37.5,1009.4942627,3,2051,25042507800,25041698120,5.5347037315,-0.0044889939,0.099915646,0.3845450282,0.12890625,-0.322265625,-0.38671875,0.0402766243,0.0366939269,-0.0038157171,-0.0328782089,0,1.7508782148,0.0017274793,0.0395647883,-0.1308740526,-0.451171875,-0.064453125,-0.1611328125,-0.0692562088,-0.0659402758,0.0137818325,0.0521584451,0,6.1364359856,0.0017485324,22.5343017578,25040279120,0.172441408,10.1932039261,-0.2011816502,0.0053263223,0.0511326939,-0.0223705545,39,1008.83642578,3,2051,25042558920,25041748120,0.6144670844,-0.0037748539,-0.0449381471,0.1317810863,-0.0322265625,0.0966796875,-0.0966796875,0.0306047872,0.0133083994,0.0184994955,-0.0318078957,0,0.5396569967,-0.0008145319,0.1173521876,-0.180598408,-0.1611328125,0,0.2578125,-0.080554083,-0.0618512928,-0.0137734748,0.075624764,0,0.0193989035,0.0015427137,22.497461319,25040279040,0.0191601571,10.0590820312,-0.3640429974,-0.0458063707,0.011717909,-0.0937432721,40,1008.36157227,12
1.54298396985734E+018,14932,1.54298396985707E+018,,3,0,0.3170962036,-0.2341120988,10,-10,10,-10,0,3,0,0.2492904067,-0.3096471429,10,-10,10,-10,0,3,0,0.3192306757,-0.3080033958,10,-10,10,-10,0,3,0,0.1927302927,-0.4141022265,10,-10,10,-10,0,3,2051,25180308720,25179598320,1.835513711,-0.0028478564,0.031605728,0.3017997742,0.0966796875,0.064453125,-0.2900390625,0.0444760211,0.0196503866,0.0247578174,-0.0444082022,0,3.6408212185,-5.75665108045E-05,-0.0070815864,-0.1896104515,-0.12890625,0.064453125,0.12890625,-0.0399819165,-0.0214073677,0.0090029873,0.01245239,0,6.0799379349,0.0001192104,22.2641353607,25178279040,0.4790039361,10.4135456085,-0.6801855564,-0.0159789659,0.0095873801,-0.0287621394,37,1009.24645996,3,2051,25180157840,25179478480,1.251686573,-0.0037572766,-0.1163987517,0.2223880887,-0.0322265625,0.2578125,-0.064453125,0.0308004525,0.0029695472,0.0250944346,-0.0280639827,0,1.1673009396,0.0011753765,-0.0228819549,-0.3192872107,-0.2900390625,-0.0966796875,0.1611328125,-0.0404937081,-0.0328265689,-0.0041947383,0.0370213091,0,6.0774860382,0.0001017094,22.3869380951,25178279000,0.2969824374,10.2890043259,-0.105380863,-0.0053263223,0.0127831735,0.023435818,37.5,1009.49285889,3,2051,25180457760,25179691760,5.5347280502,0.0010470906,0.1070071161,0.351900667,0.064453125,-0.2900390625,-0.4189453125,0.0427258797,0.0389435478,-0.0040992294,-0.0348443165,0,1.7508423328,7.88374309195E-05,-0.1090441123,-0.366325587,-0.515625,-0.0322265625,-0.064453125,-0.0516700894,-0.0487033539,0.0082038194,0.0404995345,0,6.1364359856,0.0013140313,22.497461319,25178279080,0.2778222859,9.8195800781,0.105380863,0.0202400237,0.0276968759,-0.0330231972,39,1008.83520508,3,2051,25180508840,25179829400,0.6145269871,0.0048244991,0.0207977258,0.2329441905,0.0966796875,0.193359375,-0.12890625,0.0234382637,0.011842344,0.0131478012,-0.0249901451,0,0.5396569967,-0.0051594758,-0.0749269798,-0.3802965879,-0.1611328125,-0.064453125,0.322265625,-0.0690409243,-0.053050831,-0.0117430463,0.0647938773,0,0.019374935,-0.0049570124,22.4483394623,25178279040,0.1437011808,10.0974025726,-0.3448828161,-0.0053263223,-0.0340884626,0.0021305289,40,1008.36138916,12
1.54298397001426E+018,14933,1.54298397001409E+018,,3,0,0.3195204139,-0.2330248952,10,-10,10,-10,0,3,0,0.2464075387,-0.3058487177,10,-10,10,-10,0,3,0,0.3226290941,-0.3128190637,10,-10,10,-10,0,3,0,0.1958784759,-0.4157003462,10,-10,10,-10,0,3,2051,25317308600,25316608664,1.835513711,0.0002243712,-0.1274534166,0.3196041584,0,0.193359375,-0.2900390625,0.0362253562,0.0172226559,0.0189878196,-0.0362104774,0,3.6408331394,0.0049404982,-0.1163519323,-0.4046039283,-0.2255859375,0.2900390625,0.2900390625,-0.0134258345,-0.0130832354,0.0038717436,0.0092114918,0,6.0799379349,0.0007213528,22.2886962891,25314778760,0.2490820438,10.1261434555,0.086220704,0.0287621394,0.0394147858,0.0063915867,37,1009.24859619,3,2051,25317257800,25316553320,1.2517105341,0.0025044282,0.0248328988,0.2978230119,0.064453125,0.2255859375,-0.193359375,0.0258341432,9.30879104999E-05,0.0223496594,-0.0224427469,0,1.1673009396,0.0014617681,-0.1814187169,-0.2255253792,-0.2578125,0.0966796875,0.0966796875,-0.0498354174,-0.0399315059,-0.0059002824,0.0458317883,0,6.0774860382,0.0002159901,22.4237785339,25314778720,0.0287402347,10.4135456085,-0.2969824374,0.0266316123,0.0191747602,-0.0500674285,37.5,1009.49591064,3,2051,25317457800,25316791240,5.5346560478,-0.0091175064,0.0547679588,0.3314448595,0,-0.3544921875,-0.451171875,0.0559260957,0.051968012,-0.0080813169,-0.0534081794,0,1.7508782148,0.0033599173,0.0527530499,-0.1744987369,-0.38671875,-0.2578125,-0.12890625,-0.0739193186,-0.0704577044,0.0150355231,0.0554221794,0,6.1364359856,0.0003617482,22.52202034,25314778800,0.239501968,9.8387403488,-0.2011816502,0.0213052891,0.0170442313,0.0426105782,39,1008.83319092,3,2051,25317508800,25316729680,0.6145150065,0.0027930387,-0.0448750332,0.1318027973,0.064453125,0.193359375,0,0.0332378224,0.0127042262,0.0211802945,-0.0338845216,0,0.5396450162,-0.004740458,0.0404276699,-0.4913040102,-0.193359375,0,0.4833984375,-0.0598241426,-0.0468288809,-0.0088317469,0.0556606278,0,0.0193989035,0.0010553943,22.497461319,25314778760,0.3448828161,10.2315235138,-0.2107617259,-0.0330231972,-0.0159789659,0.0394147858,40,1008.35986328,12
1.54298397013231E+018,14934,1.54298397013203E+018,,3,0,0.314468801,-0.2298952341,10,-10,10,-10,0,3,0,0.2496912181,-0.3087870479,10,-10,10,-10,0,3,0,0.3205038309,-0.3086617589,10,-10,10,-10,0,3,0,0.1990790218,-0.4202485085,10,-10,10,-10,0,3,2051,25474558600,25474499320,1.8355256319,0.00432825,0.031641908,0.3017960787,0.2255859375,0.193359375,-0.1611328125,0.0533855334,0.0245846324,0.028752489,-0.0533371195,0,3.6408090591,-0.0034520205,-0.0178542323,-0.3097063005,-0.2578125,0.064453125,0.1611328125,-0.0194469392,-0.0194958001,0.0075245122,0.0119712874,0,6.0799379349,0.0009496669,22.2886962891,25472279080,0.1532812566,10.0207624435,-0.3544628918,0.0042610578,-0.0553937517,-0.0458063707,37,1009.25146484,3,2051,25474557760,25474457984,1.2516746521,-0.0026227578,-0.0683860034,0.3160224557,-0.12890625,0.1611328125,-0.2900390625,0.0209670719,0.0008507913,0.0177183505,-0.0185691435,0,1.1672888994,0.0006852435,-0.0253778491,-0.2497197241,-0.2900390625,-0.12890625,0.0966796875,-0.0426232964,-0.0357363038,-0.0025483966,0.0382847004,0,6.0774621964,-0.005095046,22.4237785339,25472279040,0.3640429974,10.3464851379,-0.3161425889,0.0127831735,0,-0.035153728,37.5,1009.50140381,3,2051,25474757880,25474683720,5.5347518921,-0.0009723117,0.0810868964,0.3354254663,-0.0322265625,-0.3544921875,-0.451171875,0.049771335,0.0455964431,-0.0054091997,-0.0401872434,0,1.7508542538,0.0030382043,0.0036376275,-0.2845897675,-0.4833984375,-0.193359375,-0.0966796875,-0.0515938438,-0.0488564782,0.0091403434,0.0397161357,0,6.1364359856,0.0018915904,22.5343017578,25472279040,0.4598437548,10.0974025726,-0.2969824374,0.0063915867,0.0149137024,-0.0010652645,39,1008.83190918,3,2051,25474758720,25474693120,0.614503026,-0.0017965216,-0.0349980853,0.1561793685,0.064453125,0.193359375,-0.0322265625,0.0332744382,0.0113179972,0.0220714714,-0.0333894677,0,0.5396689773,0.002614941,0.1587887853,-0.4181804359,-0.1611328125,-0.1611328125,0.38671875,-0.0657675937,-0.0510583743,-0.0103698857,0.0614282601,0,0.019374935,0.001388003,22.4851799011,25472279000,0.2874023616,9.5704984665,-0.3353027403,-0.0021305289,-0.0362189934,0.011717909,40,1008.36364746,12
1.54298397026996E+018,14935,1.5429839702698E+018,,3,0,0.3197907209,-0.2323501706,10,-10,10,-10,0,3,0,0.2478448302,-0.3069601953,10,-10,10,-10,0,3,0,0.3145366907,-0.3058567941,10,-10,10,-10,0,3,0,0.1976785362,-0.4182893038,10,-10,10,-10,0,3,2051,25592358920,25591648040,1.8355016708,-0.0052269818,0.009938674,0.341917634,0.1611328125,0.1611328125,-0.2578125,0.0347732045,0.0147944232,0.0199071169,-0.0347015411,0,3.6407971382,0.0009667325,-0.02156193,-0.2401926219,-0.064453125,0.193359375,0.2578125,-0.0388843976,-0.0395016447,0.012578113,0.0268321428,0,6.0799379349,0.0006191729,22.2886962891,25590778760,0.3640429974,10.241104126,-0.5173242688,-0.0362189934,-0.0319579318,0.0085221156,37,1009.25360107,3,2051,25592207920,25591547280,1.2516986132,0.003447433,-0.0375294499,0.2262990177,-0.064453125,0.12890625,-0.193359375,0.0290380754,0.0028320216,0.02364113,-0.0264731515,0,1.1673249006,0.0040693446,0.0120124631,-0.0941076204,-0.064453125,-0.0322265625,0.064453125,-0.0654366761,-0.0371305794,-0.0065313112,0.0436618924,0,6.0774860382,0.0007903617,22.4237785339,25590778720,0.0383203141,10.5764064789,-0.2778222859,-0.0319579318,-0.0213052891,-0.0053263223,37.5,1009.49865723,3,2051,25592457960,25591678360,5.5347518921,0.0025996973,0.100099735,0.384496212,0.12890625,-0.322265625,-0.38671875,0.0535802543,0.0488443188,-0.0051624943,-0.0519642904,0,1.7508302927,-0.0012542716,-0.0526471697,-0.3254636228,-0.4189453125,-0.0322265625,0,-0.0607932135,-0.0577503406,0.0115316976,0.0462186411,0,6.1364359856,0.0016788288,22.5343017578,25590778760,0.239501968,10.1548833847,-0.0574804693,0,0.0031957934,-0.0990695953,39,1008.83129883,3,2051,25592558760,25591748840,0.614503026,0.0064717638,0.121372655,0.1779212505,0.0966796875,0.0322265625,-0.193359375,0.032898847,0.011380068,0.0217045639,-0.033084631,0,0.5396689773,-0.0008093709,-0.0428549163,-0.5932567716,-0.3544921875,0,0.2255859375,-0.0729825571,-0.0553979203,-0.0134778209,0.0688757449,0,0.0193989035,0.001597181,22.497461319,25590778760,0.3736230731,10.2698440552,-0.172441408,0.0127831735,-0.0106526446,0.0383495204,40,1008.36553955,12
1.54298397040739E+018,14936,1.54298397040711E+018,,3,0,0.3160481155,-0.2288148701,10,-10,10,-10,0,3,0,0.2486428171,-0.3061672151,10,-10,10,-10,0,3,0,0.3125182986,-0.3035191298,10,-10,10,-10,0,3,0,0.197070837,-0.4160253108,10,-10,10,-10,0,3,2051,25730258640,25729593280,1.8355256319,0.000310402,0.0324127227,0.3280972838,0.1611328125,0.12890625,-0.2578125,0.047717452,0.0220078863,0.0256674085,-0.0476752967,0,3.6407730579,-0.0059547811,0.1389442831,-0.1767369956,-0.0322265625,0,0.2578125,-0.0449272878,-0.0442930721,0.0147627387,0.0295303334,0,6.0799379349,0.0004099355,22.2640628815,25728778760,0.172441408,10.528506279,-0.8238867521,-0.0873516873,-0.0830906257,-0.0149137024,37,1009.24822998,3,2051,25730207760,25729544480,1.251650691,-0.0044267187,-0.0136299022,0.2731103301,-0.064453125,0.12890625,-0.2255859375,0.038075909,0.0019807492,0.0319396108,-0.0339203626,0,1.1673249006,0.0030929088,0.0670564845,-0.4255033731,-0.2578125,-0.12890625,0.322265625,-0.0244162828,-0.0215899441,0.0003019879,0.0212879553,0,6.0774860382,0.0003141859,22.3869380951,25728778720,0.2778222859,10.2315235138,-0.1437011808,-0.0575242788,0.0053263223,-0.0245010816,37.5,1009.49645996,3,2051,25730407800,25729699880,5.534763813,0.0024640465,0.0265970696,0.2577811182,-0.0966796875,-0.3544921875,-0.451171875,0.055153098,0.050630901,-0.0062795952,-0.0443513058,0,1.7508063316,-0.0044866824,-0.0971170142,-0.3151170015,-0.515625,-0.0966796875,-0.12890625,-0.0557335317,-0.0527449884,0.0097291935,0.043015793,0,6.1364359856,0.0020616059,22.4851799011,25728778760,0.3353027403,10.3943853378,-0.172441408,0.0138484379,-0.0255663469,-0.044741109,39,1008.83233643,3,2051,25730508880,25729705440,0.6144910455,-0.0020425646,-0.0475802831,0.2464542538,0,0.193359375,-0.1611328125,0.0125398105,0.0077382405,0.0061625633,-0.0139008034,0,0.5396569967,-0.0017939401,-0.0895010978,-0.4702730775,-0.2578125,0.0966796875,0.4189453125,-0.0569652803,-0.042651426,-0.0114391726,0.0540905967,0,0.0193989035,0.0012349436,22.4483394623,25728778720,0.3353027403,10.1548833847,0,-0.0031957934,-0.0149137024,0.011717909,40,1008.36535645,12
1.54298397054513E+018,14937,1.54298397054485E+018,,3,0,0.3180813789,-0.2342435867,10,-10,10,-10,0,3,0,0.2491645068,-0.3087501824,10,-10,10,-10,0,3,0,0.3148353696,-0.3081810772,10,-10,10,-10,0,3,0,0.1956627369,-0.4161001444,10,-10,10,-10,0,3,2051,25867308600,25866603160,1.835537672,0.0055328379,-0.0354932323,0.3432548642,0.0966796875,0.1611328125,-0.2900390625,0.0375475995,0.017111063,0.0203964151,-0.0375074781,0,3.6408090591,-0.0036134718,0.0292632245,-0.063167423,0.0322265625,0.064453125,0.12890625,-0.056127701,-0.054553967,0.0156902466,0.0388637185,0,6.079914093,-0.0057381475,22.3132572174,25865279080,0.0958007872,10.3464851379,-0.4598437548,0.035153728,0.0053263223,0.0617853403,37,1009.2477417,3,2051,25867307880,25866596760,1.251650691,-0.0036640936,-0.1239393726,0.1078940481,-0.2255859375,0,-0.1611328125,0.0454659611,0.0046061357,0.0369213596,-0.0415274948,0,1.1673249006,0.0029312335,0.0855299234,-0.2208278775,-0.193359375,-0.193359375,0.0966796875,-0.0296744779,-0.0267037097,0.0010989476,0.0256047621,0,6.0774860382,0.000462782,22.4360599518,25865279040,0.3448828161,10.4901857376,-0.1916015744,0.0479369015,-0.011717909,-0.0223705545,37.5,1009.49786377,3,2051,25867507880,25866828680,5.5347518921,0.0009207583,0.0075533562,0.2087136954,-0.12890625,-0.322265625,-0.4189453125,0.0736576691,0.0681224465,-0.0097646937,-0.0583577529,0,1.7508063316,-0.0073467633,-0.1089123115,-0.3663644791,-0.451171875,-0.193359375,-0.064453125,-0.0546358079,-0.0519553497,0.0105868811,0.0413684696,0,6.1364359856,0.0003982125,22.5465812683,25865279080,0.3448828161,10.2698440552,-0.3640429974,-0.0053263223,-0.0042610578,0.044741109,39,1008.8326416,3,2051,25867559040,25866748720,0.6144670844,-0.0011023501,-0.1096441895,0.214791134,0,0.2578125,-0.064453125,0.0258606598,0.0098767225,0.0164814368,-0.0263581611,0,0.5396809578,0.0019903914,0.0662240833,-0.5926274657,-0.4189453125,0.12890625,0.451171875,-0.0482255034,-0.0362224951,-0.0095046125,0.0457271077,0,0.0193989035,0.0011073494,22.5097408295,25865279040,0.2490820438,10.135723114,-0.3065625131,0.0532632247,-0.0042610578,0.0500674285,40,1008.36444092,12
1.54298397068226E+018,14938,1.54298397068204E+018,,3,0,0.3185389638,-0.2321375757,10,-10,10,-10,0,3,0,0.2520397604,-0.3089992106,10,-10,10,-10,0,3,0,0.317590028,-0.3067529202,10,-10,10,-10,0,3,0,0.2038742006,-0.4250552058,10,-10,10,-10,0,3,2051,26005308600,26004633240,1.835513711,-0.0035483402,-0.0610398762,0.2518565059,0.0966796875,0.193359375,-0.1611328125,0.028881235,0.0139381727,0.0149380639,-0.0288762376,0,3.6407971382,0.0015510212,-0.025306752,-0.1706769615,-0.0322265625,0.1611328125,0.193359375,-0.0396230519,-0.0385649092,0.0112634497,0.0273014605,0,6.0799379349,0.0007624112,22.3132572174,26003279040,0.086220704,10.921289444,-0.6897656322,-0.0468716361,0.0031957934,0.044741109,37,1009.24908447,3,2051,26005257880,26004483720,1.251686573,0.0028031231,-0.0901181847,0.223690182,-0.064453125,0.193359375,-0.12890625,0.0251462925,0.0029420238,0.0202069283,-0.0231489539,0,1.1673009396,-0.000324036,-0.0888523981,-0.4012964666,-0.38671875,-0.064453125,0.193359375,-0.0348896421,-0.0294463411,-0.0017810445,0.0312273856,0,6.0774860382,0.0003786692,22.4360599518,26003279000,0.2299218774,10.4518661499,-0.1245410219,-0.037284255,-0.0468716361,-0.0287621394,37.5,1009.49835205,3,2051,26005507920,26004731200,5.534763813,0.0026293665,-0.0679013133,0.2661882341,-0.064453125,-0.2255859375,-0.451171875,0.0577661879,0.0536843911,-0.003926699,-0.0340109207,0,1.7507944107,-0.0016603636,-0.0260804556,-0.4127093256,-0.5478515625,-0.0966796875,0,-0.0402508341,-0.0381497443,0.0072653769,0.0308843665,0,6.1364121437,-0.0046590259,22.5343017578,26003279080,0.2107617259,9.8962211609,0.1149609387,0.0085221156,-0.0159789659,0.0394147858,39,1008.83789062,3,2051,26005508800,26004742080,0.6144431233,-0.0056316573,0.0367837287,0.2609948516,0.193359375,0.2578125,-0.0966796875,0.0143108619,0.0080809509,0.0074951905,-0.015576141,0,0.539716959,0.0069750482,0.147245124,-0.3240664899,-0.0322265625,-0.064453125,0.38671875,-0.0701584294,-0.0545986295,-0.0108573623,0.065455988,0,0.0193989035,0.0012543584,22.5097408295,26003279040,0.4023633003,9.7333593369,-0.2778222859,-0.0074568512,0.0458063707,0.035153728,40,1008.36437988,12
1.5429839708202E+018,14939,1.54298397081991E+018,,3,0,0.318451792,-0.2294523865,10,-10,10,-10,0,3,0,0.2469744235,-0.3089855909,10,-10,10,-10,0,3,0,0.3253282011,-0.3141307235,10,-10,10,-10,0,3,0,0.1992219836,-0.4154083729,10,-10,10,-10,0,3,2051,26142308760,26141605800,1.835537672,0.0027042183,-0.0131028108,0.329434067,0.2255859375,0.2578125,-0.1611328125,0.042215243,0.0204965994,0.0217155814,-0.0422121808,0,3.6407730579,-0.0033616424,-0.0690729246,-0.1581136882,-0.12890625,0.0966796875,0.064453125,-0.0466659516,-0.0458826683,0.0148959374,0.03098673,0,6.0799379349,0.0007141877,22.3009757996,26139778800,0.2682422102,10.1932039261,-0.6897656322,-0.0383495204,0.0362189934,-0.0138484379,37,1009.25018311,3,2051,26142207960,26141543320,1.2517105341,0.0013291389,0.1246714741,0.1430386603,0.064453125,0.125,-0.1611328125,0.0318929143,0.0045307926,0.0251947362,-0.0297255274,0,1.1672888994,-0.0015365814,-0.0608923212,-0.2211579233,-0.193359375,0,0.12890625,-0.0452936254,-0.036392577,-0.0052042231,0.0415968001,0,6.0774860382,0.0005721208,22.4360599518,26139778720,0.0095800785,10.5955667496,-0.4406836033,-0.0074568512,-0.023435818,0.0276968759,37.5,1009.5010376,3,2051,26142457960,26141694280,5.5347037315,-0.0056424066,-0.0230720565,0.3192756176,0,-0.2578125,-0.451171875,0.050216049,0.0463232733,-0.0063293055,-0.0399939679,0,1.750890255,0.0093449447,-0.0384807959,-0.4639226198,-0.64453125,-0.12890625,-0.0322265625,-0.0372667015,-0.034690585,0.0040948242,0.0305957608,0,6.1364359856,0.0004541288,22.5464344025,26139778800,0.2778222859,10.0495023727,-0.2586621344,0.0532632247,0.0617853403,0.0095873801,39,1008.83917236,3,2051,26142458840,26141754760,0.6144910455,0.0040879799,-0.0610781349,0.1525483429,-0.0322265625,0.12890625,-0.0966796875,0.0264894608,0.0101697939,0.0168507304,-0.0270205233,0,0.5396569967,-0.0049674432,-0.0083691049,-0.2987353504,-0.1611328125,0,0.2578125,-0.0647533014,-0.0495221987,-0.0113794319,0.0609016307,0,0.0193989035,0.0006142185,22.497461319,26139778720,0.0766406283,10.4518661499,-0.3257226646,-0.0159789659,0.0287621394,-0.0287621394,40,1008.3661499,12
1.54298397097376E+018,14940,1.54298397097359E+018,,3,0,0.315740943,-0.2301129699,10,-10,10,-10,0,3,0,0.2468617111,-0.3043141365,10,-10,10,-10,0,3,0,0.3218833506,-0.3085393608,10,-10,10,-10,0,3,0,0.1983419061,-0.416266799,10,-10,10,-10,0,3,2051,26280258560,26279592000,1.835549593,-0.0025288248,-0.0586180314,0.330781728,0.1611328125,0.0966796875,-0.12890625,0.0414439104,0.0174718052,0.023880545,-0.0413523503,0,3.6407492161,-0.0072407546,0.0772023201,-0.3095399141,-0.12890625,0.0966796875,0.322265625,-0.0180636086,-0.0178752504,0.0061714421,0.0117038079,0,6.079914093,-0.0053248964,22.3255367279,26277778760,0.1149609387,10.3273248672,-0.1245410219,0.0053263223,0.023435818,-0.0383495204,37,1009.2489624,3,2051,26280257800,26279494840,1.2516986132,0.0054070479,-0.1283876449,0.1989929229,-0.1611328125,0.12890625,-0.1611328125,0.0333178453,0.004066423,0.0266820006,-0.0307484232,0,1.1673009396,-0.0026947495,-0.0514095984,-0.2456847131,-0.2578125,-0.064453125,0.0966796875,-0.0521288179,-0.0414823219,-0.0066239852,0.0481063053,0,6.0774860382,0.0006923347,22.4360599518,26277778760,0.3736230731,10.3081645966,-0.2299218774,0.0021305289,-0.0436758436,0.0053263223,37.5,1009.49810791,3,2051,26280457960,26279796280,5.5347037315,-0.0080255661,-0.1175757125,0.3276261389,-0.12890625,-0.2900390625,-0.451171875,0.0580674447,0.0537850112,-0.0079185702,-0.045866441,0,1.7508302927,0.0057408637,0.0745032728,-0.3821949959,-0.451171875,-0.12890625,0.0966796875,-0.0567128919,-0.0541587472,0.0119544091,0.0422043391,0,6.1364359856,0.0005960168,22.5465812683,26277778800,0.2011816502,9.8579006195,-0.0095800785,0.0085221156,0.037284255,0.0575242788,39,1008.8381958,3,2051,26280558920,26279750840,0.6145150065,0.0093543772,0.0432073139,0.1670451909,0.12890625,0.1611328125,-0.064453125,0.0340787098,0.0111259641,0.0228945129,-0.034020476,0,0.5396450162,-0.0045506852,0.0477093123,-0.4463148713,-0.12890625,-0.064453125,0.4833984375,-0.0662530512,-0.0517322235,-0.0099824313,0.0617146567,0,0.0193989035,0.0018258562,22.5097408295,26277778760,0.3257226646,9.7333593369,-0.3640429974,0.0138484379,-0.0521979593,0.0213052891,40,1008.36639404,12
1.54298397109609E+018,14941,1.54298397109587E+018,,3,0,0.3163014948,-0.2304272056,10,-10,10,-10,0,3,0,0.2455653399,-0.3046037257,10,-10,10,-10,0,3,0,0.3158932626,-0.3070853353,10,-10,10,-10,0,3,0,0.197978586,-0.4171399772,10,-10,10,-10,0,3,2051,26433858640,26433890240,1.835513711,-0.0021004621,-0.0602722131,0.2781578004,0.12890625,0.2255859375,-0.1611328125,0.0501664355,0.0167189743,0.0184779726,-0.0351969488,0,3.6407971382,-4.32479246228E-05,0.014979302,-0.2780626416,-0.12890625,0.12890625,0.2578125,-0.0276967101,-0.0273321774,0.0091919582,0.0181402192,0,6.0799379349,0.0003411465,22.2886962891,26432279040,0.2203418016,9.8387403488,0.2682422102,-0.0468716361,0.0063915867,-0.0266316123,37,1009.24926758,3,2051,26433758000,26433751680,1.2516746521,-0.0003978971,0.026986517,0.2523123026,0,0.12890625,-0.2255859375,0.0165508296,-0.0011028484,0.0149499206,-0.0138470726,0,1.1673128605,-0.003902094,-0.0489215404,-0.3152493536,-0.2578125,-0.0322265625,0.193359375,-0.0413514823,-0.0334896408,-0.0043348167,0.0378244594,0,6.0774860382,0.0011374179,22.4237785339,26432279040,0.0574804693,10.4422855377,-0.2682422102,-0.0170442313,0.0181094967,0.0298274048,37.5,1009.50048828,3,2051,26433957840,26433983840,5.534763813,0.0036936586,0.0101044811,0.2782835662,0,-0.2578125,-0.38671875,0.0548026264,0.049996227,-0.0038059,-0.0346382037,0,1.7508063316,-0.0046961107,0.0050320611,-0.379450202,-0.38671875,0,0.12890625,-0.0528946891,-0.0503235348,0.0103500579,0.039973475,0,6.1364359856,0.0003683953,22.52202034,26432279040,0.3161425889,10.0686626434,-0.3065625131,0.0202400237,0.0394147858,0.0404800475,39,1008.83569336,3,2051,26434008800,26434040240,0.614503026,0.003519624,0.0171254948,0.1634266526,0.12890625,0.193359375,-0.0322265625,0.0353696756,0.0126348641,0.0205662362,-0.0332011618,0,0.5396689773,0.0003294809,-0.0376105271,-0.4786831439,-0.2900390625,0,0.38671875,-0.0610521585,-0.0463567637,-0.0112516675,0.0576084331,0,0.0193989035,0.0008527775,22.4851799011,26432279040,0.1916015744,10.2123632431,-0.1341211051,0.0138484379,0.0053263223,-0.0085221156,40,1008.36663818,12
1.54298397123331E+018,14942,1.54298397123303E+018,,3,0,0.3190251887,-0.2329894602,10,-10,10,-10,0,3,0,0.2477172464,-0.3085541129,10,-10,10,-10,0,3,0,0.3163387775,-0.3057942986,10,-10,10,-10,0,3,0,0.1960376203,-0.41456002,10,-10,10,-10,0,3,2051,26556358560,26555578160,1.835513711,-0.0026576659,0.0099796429,0.3419165313,0.1611328125,0.1611328125,-0.2578125,0.0408395454,0.0194108617,0.0214117244,-0.0408225842,0,3.6408331394,0.0051291082,0.124294661,-0.2273960859,-0.12890625,-0.0322265625,0.2255859375,-0.036021743,-0.0354801752,0.0117140198,0.0237661563,0,6.0799379349,0.0006620479,22.3009757996,26553778800,0.172441408,9.97286129,-0.5077441335,0.0095873801,0.0330231972,-0.0436758436,37,1009.25030518,3,2051,26556207960,26555448920,1.2517225742,0.004598937,-0.0187378731,0.1131541654,-0.0322265625,0.064453125,-0.0966796875,0.0377993584,0.0037470616,0.0307416245,-0.0344886854,0,1.1673009396,0.0007769096,-0.0089151599,-0.2292142659,-0.2255859375,-0.0966796875,0.0966796875,-0.0445808209,-0.0359139889,-0.0049741622,0.0391184203,0,6.0774860382,0.0003346752,22.4483394623,26553778760,0.2586621344,10.0974025726,-0.2969824374,0.0149137024,-0.011717909,0,37.5,1009.49835205,3,2051,26556457760,26555650240,5.5347399712,0.0017079903,-0.0984507576,0.3767409027,0.064453125,-0.1611328125,-0.4833984375,0.057501737,0.0540082417,-0.0098868851,-0.0441213548,0,1.7508423328,0.0018678,0.0036717285,-0.284589231,-0.451171875,-0.1611328125,-0.2578125,-0.0722630173,-0.0692099333,0.016079247,0.0531306863,0,6.1364359856,0.0018502254,22.5465812683,26553778800,0.2490820438,10.5572462082,-0.0958007872,0.0085221156,0.0138484379,0.0106526446,39,1008.83642578,3,2051,26556558720,26555751120,0.6145150065,0.0022762083,0.056727685,0.2609479427,0.1611328125,0.2255859375,-0.12890625,0.0232822914,0.0106408335,0.0137558132,-0.0243966468,0,0.5396450162,-0.0017406951,0.034233436,-0.2825468779,-0.2578125,-0.12890625,0.2900390625,-0.0702869445,-0.0536484867,-0.0125170723,0.066165559,0,0.0193989035,0.0016617501,22.497461319,26553778720,0.3544628918,9.97286129,-0.0670605525,-0.0127831735,-0.0255663469,0.0053263223,40,1008.36730957,12
1.5429839715091E+018,14944,1.54298397150896E+018,,3,0,0.3157843947,-0.2307390869,10,-10,10,-10,0,3,0,0.2459514886,-0.3079205453,10,-10,10,-10,0,3,0,0.3174172044,-0.3045283258,10,-10,10,-10,0,3,0,0.2022011429,-0.4205051661,10,-10,10,-10,0,3,2051,26831308560,26830528960,1.8355256319,0.0021305103,-0.0355343483,0.3432505131,0.2578125,0.322265625,-0.12890625,0.0370956659,0.0168659426,0.0201888625,-0.0461332314,0,3.640761137,-0.0064651505,0.0841332078,-0.1199350134,-0.064453125,-0.0322265625,0.12890625,-0.0419981964,-0.04162094,0.0145606073,0.0270603336,0,6.0799379349,0.0005860243,22.3009757996,26829778800,0.3257226646,10.3464851379,-0.6131250262,-0.0266316123,0,-0.0063915867,37,1009.25079346,3,2051,26831157800,26830498440,1.2517225742,-0.0009647012,-0.0209768023,0.1586743593,-0.0966796875,0.0322265625,-0.193359375,0.033464849,0.0013457011,0.0282862578,-0.0296319593,0,1.1672888994,0.0006658799,-0.1052944958,-0.4218115807,-0.322265625,0.0322265625,0.2900390625,-0.0257251505,-0.0211320557,-0.0022267103,0.023358766,0,6.0774860382,0.0007918454,22.4726810455,26829778720,0.0574804693,10.4039649963,-0.4790039361,-0.023435818,-0.0170442313,-0.0340884626,37.5,1009.49975586,3,2051,26831457800,26830653400,5.534763813,-0.0011523411,-0.0774106607,0.2416540384,-0.064453125,-0.193359375,-0.4189453125,0.0713066384,0.0672338232,-0.0129691809,-0.0542646423,0,1.7507944107,0.0020596643,0.018302355,-0.4230630398,-0.4833984375,-0.064453125,0.0966796875,-0.0408919416,-0.0382404067,0.0052033961,0.0330370106,0,6.1364359856,0.001224834,22.5588626862,26829778800,0.2107617259,10.0686626434,-0.6131250262,0.0191747602,-0.0330231972,0.0266316123,39,1008.83898926,3,2051,26831558840,26830749880,0.6144191623,-0.0117087821,-0.0611877032,0.1525041163,-0.0322265625,0.12890625,-0.0966796875,0.0359353833,0.0138502987,0.022820333,-0.0366706327,0,0.5397049785,0.0051074526,0.1566155851,-0.3486509323,-0.0966796875,-0.064453125,0.3544921875,-0.0761578679,-0.0588284954,-0.0124708861,0.0712993816,0,0.0193989035,0.0008698646,22.497461319,26829778720,0.0766406283,10.4518661499,-0.3065625131,0.0468716361,-0.0362189934,0.0042610578,40,1008.36712646,12
1.5429839716471E+018,14945,1.54298397164685E+018,,3,0,0.3167498708,-0.2308025062,10,-10,10,-10,0,3,0,0.2518053055,-0.3077617586,10,-10,10,-10,0,3,0,0.3196237981,-0.3074313402,10,-10,10,-10,0,3,0,0.1995128989,-0.4172948301,10,-10,10,-10,0,3,2051,26969258600,26968591000,1.835537672,0.0058322847,0.1267123222,0.3780145943,0.322265625,0.1611328125,-0.2255859375,0.0314073898,0.0129431924,0.018384872,-0.0313280635,0,3.6407852173,-0.002570099,-0.0070134075,-0.1896127462,-0.0966796875,0.0966796875,0.1611328125,-0.0327286348,-0.0323854461,0.0111711146,0.0212143324,0,6.0799379349,0.0003902204,22.2395744324,26967778800,0.1245410219,10.1644630432,-0.3353027403,-0.0191747602,-0.0319579318,0.044741109,37,1009.24627686,3,2051,26969207920,26968446720,1.2516386509,-0.0029770839,-0.0616681762,0.1794429719,0.12890625,0.12890625,-0.2900390625,0.0271217525,-7.25736754248E-05,0.023556808,-0.0234842356,0,1.1673128605,0.0017108965,0.0240474939,-0.1882124543,-0.2900390625,-0.2255859375,-0.0322265625,-0.0533491746,-0.0430706181,-0.0058063995,0.0265753213,0,6.0774860382,0.0006022421,22.3746585846,26967778760,0.1916015744,10.1644630432,-0.3257226646,0.0159789659,-0.0213052891,0.0063915867,37.5,1009.50006104,3,2051,26969357800,26968690600,5.5347037315,-0.004010295,0.0834107399,0.4050376713,0.12890625,-0.322265625,-0.4189453125,0.0349007063,0.0318564847,-0.0034714658,-0.0283850189,0,1.7508183718,-0.0016658856,-0.1281545013,-0.3483578563,-0.5478515625,-0.064453125,-0.12890625,-0.0554881543,-0.052500993,0.0096398033,0.0428611897,0,6.1364359856,0.0014172184,22.4729003906,26967778800,0.0095800785,9.9824419022,-0.0191601571,0.0138484379,-0.0074568512,0.0042610578,39,1008.83966064,3,2051,26969458800,26968752560,0.6145389676,0.0088092983,-0.0709065869,0.1281993687,0,0.1611328125,-0.0322265625,0.040438205,0.0132896565,0.0271143187,-0.040403977,0,0.5396689773,0.0025199743,-0.1155309752,-0.466052264,-0.2900390625,0.0966796875,0.38671875,-0.0514775105,-0.0385289527,-0.010358138,0.0488870889,0,0.0193989035,0.0010586691,22.4483394623,26967778760,0.1820214987,10.0686626434,-0.4311035275,-0.0266316123,0.0063915867,0.089482218,40,1008.36712646,12
1.54298397178425E+018,14946,1.54298397178403E+018,,3,0,0.3187933862,-0.2323655486,10,-10,10,-10,0,3,0,0.2523537874,-0.307742089,10,-10,10,-10,0,3,0,0.3165103793,-0.3106403351,10,-10,10,-10,0,3,0,0.2014081478,-0.4202422798,10,-10,10,-10,0,3,2051,27107258640,27106590800,1.8355016708,-0.0005838068,0.0084096557,0.2893148959,0.2255859375,0.193359375,-0.064453125,0.045567885,0.0198883545,0.0256021693,-0.0454905257,0,3.6408090591,-0.002494233,-0.1382597089,-0.3161780834,-0.064453125,0.38671875,0.322265625,-0.0212456398,-0.02054126,0.0055575208,0.0149837397,0,6.0799379349,5.86167661822E-05,22.3009757996,27105778760,0.0766406283,10.1740436554,-0.1245410219,-0.0063915867,-0.011717909,-0.0191747602,37,1009.24676514,3,2051,27107208080,27106528480,1.2517105341,0.0007927593,-0.1163456142,0.2224162966,-0.1611328125,0.12890625,-0.193359375,0.0344687551,0.004371447,0.0275146663,-0.0318861119,0,1.1673009396,0.0019254622,0.0430884771,-0.1923561245,-0.2900390625,-0.2578125,-0.0322265625,-0.0589285083,-0.0481617935,-0.0054881219,0.0536499172,0,6.0774860382,0.0003056477,22.4483394623,27105778760,0,10.2506837845,-0.3832031488,0.023435818,0.0777643025,0.0692421868,37.5,1009.50073242,3,2051,27107523296,27106696560,5.534775734,-0.0006947018,0.0266279411,0.2577777803,-0.0322265625,-0.2900390625,-0.38671875,0.0539468005,0.0501325428,-0.0078077633,-0.0423247814,0,1.7508183718,0.0042027952,0.1598192304,-0.6182631254,-0.64453125,-0.1611328125,0.2578125,-0.0236041043,-0.0220321193,0.0028328039,0.0262698848,0,6.1364359856,0.0006824886,22.5343017578,27105778760,0.3161425889,10.3752250671,-0.2107617259,0.0181094967,0.0255663469,-0.0031957934,39,1008.83929443,3,2051,27107508840,27106703800,0.6144431233,-0.0032590984,-0.044969704,0.1317702383,0.064453125,0.193359375,0,0.0288189929,0.010142982,0.0189015735,-0.0290445555,0,0.5396929383,0.0036713623,-0.1509498954,-0.4372072816,-0.322265625,0.0966796875,0.322265625,-0.0596040003,-0.045352865,-0.0108349938,0.0561878607,0,0.019374935,-0.0051270095,22.497461319,27105778720,0.2586621344,9.8100004196,-0.546064496,0.0255663469,0.0170442313,-0.0415453129,40,1008.36706543,12
1.54298397198638E+018,14947,1.5429839719862E+018,,3,0,0.3225080073,-0.2356628329,10,-10,10,-10,0,3,0,0.2479665726,-0.3063951433,10,-10,10,-10,0,3,0,0.3189822435,-0.3074850142,10,-10,10,-10,0,3,0,0.1990382969,-0.4164714813,10,-10,10,-10,0,3,2051,27244308600,27243834040,1.8354897499,-0.0031771909,0.0546917692,0.3142985404,0.2255859375,0.1611328125,-0.193359375,0.0404804721,0.0181780662,0.0222506449,-0.040428713,0,3.6408450604,0.0095069716,0.0623557232,-0.3601885736,-0.193359375,0.0966796875,0.322265625,-0.0220490713,-0.0222477354,0.0090304082,0.0132173272,0,6.0799379349,0.0003198782,22.3132572174,27242279080,0.0670605525,10.2602643967,-0.5939648747,0.011717909,-0.0340884626,-0.0404800475,37,1009.25244141,3,2051,27244208056,27243805080,1.2517105341,0.0026463505,-0.0112219146,0.2275994718,-0.0322265625,0.12890625,-0.193359375,0.0256607272,0.003026675,0.0206072368,-0.0236339122,0,1.1672649384,-0.004756392,0.0362066403,-0.282301873,-0.2900390625,-0.193359375,0.0966796875,-0.0431109704,-0.0353051871,-0.0039018914,0.0407650694,0,6.0774860382,0.0004660667,22.4483394623,27242279040,0.3065625131,10.0686626434,-0.0670605525,-0.0010652645,0.0319579318,0.044741109,37.5,1009.49615479,3,2051,27244407800,27243945720,5.5347280502,-0.0014050019,0.010004444,0.2782876492,0.0966796875,-0.2900390625,-0.451171875,0.0437490866,0.040759705,-0.0066153985,-0.0341443047,0,1.7508423328,0.0003973747,-0.0731040463,-0.2125960439,-0.4189453125,-0.12890625,-0.1611328125,-0.0614215694,-0.0579589568,0.0100212693,0.0479376875,0,6.1364359856,0.0003510092,22.5465812683,27242279120,0.1245410219,9.9058008194,-0.3927832246,-0.0458063707,-0.0266316123,0.0426105782,39,1008.84039307,3,2051,27244458760,27243956440,0.6145150065,0.0001569369,-0.0412503183,0.2013247311,0.0322265625,0.193359375,-0.0966796875,0.0377919897,0.0126166241,0.025216477,-0.037833102,0,0.5396450162,0.0031024185,0.0664021447,-0.4955080748,-0.2900390625,0,0.2578125,-0.069227241,-0.0533840135,-0.0114779919,0.0648620054,0,0.0193989035,0.0012259535,22.4851799011,27242279000,0.6035449505,9.9153814316,-0.3161425889,-0.0223705545,-0.0010652645,-0.0255663469,40,1008.36932373,12
1.54298397219711E+018,14948,1.54298397219687E+018,,3,0,0.3159385324,-0.2306228131,10,-10,10,-10,0,3,0,0.2490613312,-0.3093258739,10,-10,10,-10,0,3,0,0.3205456436,-0.3065965474,10,-10,10,-10,0,3,0,0.1992794275,-0.4177831709,10,-10,10,-10,0,3,2051,27519208600,27518529240,1.835537672,-0.0017163341,0.0780069008,0.3267529309,0.193359375,0.0966796875,-0.2578125,0.0402181149,0.0177249946,0.0224299934,-0.0401549861,0,3.640761137,-0.0010760627,0.0298726857,-0.3917924762,-0.064453125,0.193359375,0.322265625,-0.0299969576,-0.029411234,0.0092866439,0.02012459,0,6.0799379349,3.94239286834E-05,22.2764148712,27516778760,0.4406836033,10.2506837845,0.2107617259,-0.0436758436,-0.023435818,-0.0415453129,37,1009.25286865,3,2051,27519207840,27518432640,1.2517344952,0.0002282958,-0.0944780782,0.3147747517,-0.064453125,0.2578125,-0.193359375,0.0194749348,-9.67792148003E-05,0.0169385727,-0.0168417934,0,1.1672888994,0.0035309528,-0.048846025,-0.315261364,-0.2900390625,-0.064453125,0.1611328125,-0.0402758494,-0.033516258,-0.0028058514,0.0363221094,0,6.0774621964,-0.0052239969,22.3992176056,27516778760,0.1628613323,10.5476665497,-0.1437011808,-0.0181094967,-0.0149137024,-0.0298274048,37.5,1009.50427246,3,2051,27519357800,27518689160,5.5347399712,-0.0032449027,0.1120666415,0.4786165059,0,-0.4189453125,-0.708984375,0.0423152037,0.0393160023,-0.0061037438,-0.0332122594,0,1.7508063316,-0.0031307032,0.0289552379,-0.2769553065,-0.4833984375,-0.2255859375,-0.0966796875,-0.0716079697,-0.0683475286,0.0149394702,0.0534080565,0,6.1364359856,0.0012218021,22.5097408295,27516778760,0.1820214987,10.0878229141,-0.4406836033,-0.0255663469,0.0074568512,-0.0340884626,39,1008.83477783,3,2051,27519508920,27518705720,0.6145150065,0.0039478801,0.0135203656,0.0939027444,0.064453125,0.0966796875,-0.0322265625,0.04651675,0.0148042999,0.0314877629,-0.0462920591,0,0.5396450162,-0.0018545063,-0.1227008626,-0.5110687017,-0.2900390625,0.12890625,0.451171875,-0.0560822263,-0.0421690941,-0.0109828487,0.0531519428,0,0.0193989035,0.0012127465,22.4729003906,27516778720,0.1149609387,10.6722078323,-0.2586621344,-0.0404800475,0.044741109,-0.0213052891,40,1008.37231445,12
1.54298397233449E+018,14949,1.54298397233418E+018,,3,0,0.3202991486,-0.2320597619,10,-10,10,-10,0,3,0,0.2502762079,-0.30722785,10,-10,10,-10,0,3,0,0.3192523718,-0.3066798151,10,-10,10,-10,0,3,0,0.1968437433,-0.4212920666,10,-10,10,-10,0,3,2051,27657258600,27656591160,1.835537672,-0.0033908887,0.0324520431,0.3280934989,0.2578125,0.12890625,-0.193359375,0.0323056616,0.0114763826,0.0206863079,-0.0321626887,0,3.6407730579,0.0011968802,0.0147797978,-0.1137373671,0,0.0966796875,0.1611328125,-0.0508949496,-0.0496133454,0.0147423241,0.0348710194,0,6.0799379349,0.0008581845,22.3132572174,27654778800,0.0766406283,10.4135456085,-0.1532812566,-0.0170442313,0.0308926702,0.0202400237,37,1009.25061035,3,2051,27657157920,27656493520,1.2517105341,0.0001011207,-0.1141012311,0.1768964082,-0.12890625,0.12890625,-0.12890625,0.0301138703,0.002440477,0.0247865822,-0.0272270609,0,1.1672888994,0.0042528347,-0.0107973879,-0.4133934975,-0.322265625,-0.0966796875,0.2578125,-0.0302260462,-0.0244780276,-0.0031702593,0.0276482869,0,6.0774860382,0.0004392495,22.4483394623,27654778720,0.4598437548,10.2602643967,-0.0670605525,1.9233981698E-38,-0.023435818,0.0511326939,37.5,1009.50030518,3,2051,27657457960,27656696680,5.5347399712,0.0018059491,0.0290447585,0.3273593485,0.064453125,-0.2578125,-0.38671875,0.0442572981,0.0406488813,-0.0050936984,-0.0355551839,0,1.7508302927,0.0009045434,-0.0466602333,-0.2998413444,-0.4189453125,-0.064453125,-0.0322265625,-0.0493377708,-0.0467223413,0.0087449076,0.0379774347,0,6.1364359856,0.0004537974,22.5465812683,27654778760,0.3353027403,10.1453027725,-0.3065625131,0.0564590171,0.0021305289,0.0521979593,39,1008.83691406,3,2051,27657558800,27656750480,0.614503026,5.01832109876E-05,0.0108491536,0.2085670084,0.064453125,0.1611328125,-0.12890625,0.032807447,0.0132490993,0.0204650816,-0.0337141827,0,0.5396809578,0.00050921,0.0142780626,-0.487105608,-0.1938476563,-0.064453125,0.12890625,-0.0845210254,-0.0641651079,-0.0155945644,0.0797596723,0,0.0193989035,0.0005459304,22.497461319,27654778720,0.1245410219,10.6051473618,-0.3065625131,0.0181094967,0.011717909,0.0394147858,40,1008.37207031,12
1.54298397247209E+018,14950,1.54298397247187E+018,,3,0,0.311858207,-0.2271906137,10,-10,10,-10,0,3,0,0.2467830777,-0.3074250817,10,-10,10,-10,0,3,0,0.3192588091,-0.3047240675,10,-10,10,-10,0,3,0,0.1989476234,-0.4163948298,10,-10,10,-10,0,3,2051,27794359000,27793549560,1.835573554,0.0024222063,0.0094011175,0.3156102002,0.193359375,0.193359375,-0.193359375,0.0297598001,0.0130505087,0.0166600067,-0.0297105145,0,3.6407372952,-0.0040744455,-0.0286656711,-0.2654996514,-0.0322265625,0.2578125,0.322265625,-0.0334281325,-0.0435996018,0.0128106223,0.0307980813,0,6.0799379349,0.0005618851,22.3009757996,27792778800,0.0958007872,10.1453027725,-0.4119433761,0,0.0330231972,0.0319579318,37,1009.25280762,3,2051,27794207760,27793531200,1.2517465353,0.0032978766,-0.0374214761,0.2263171524,-0.064453125,0.12890625,-0.193359375,0.0201757587,0.0013117156,0.016782159,-0.0180938747,0,1.1673009396,0.0042065731,0.0221545901,-0.3723849356,-0.2900390625,-0.12890625,0.2255859375,-0.0378489532,-0.0305222347,-0.0041733123,0.0346955471,0,6.0774860382,0.0002493402,22.4483394623,27792778760,0.3161425889,10.1069831848,-0.1820214987,0,-0.0021305289,0.0223705545,37.5,1009.49713135,3,2051,27794458040,27793748280,5.5347399712,0.0039007738,-0.0109442975,0.4133914411,0.12890625,-0.2255859375,-0.451171875,0.0453210585,0.042457357,-0.007490918,-0.034966439,0,1.7508183718,-0.0035571514,0.0037399409,-0.2845881879,-0.3876953125,-0.12890625,0,-0.0603746288,-0.0578541048,0.013559524,0.0442945808,0,6.1364359856,0.0013242644,22.5343017578,27792778760,0.1437011808,10.2315235138,-0.3161425889,0.0660463944,-0.0468716361,-0.035153728,39,1008.83746338,3,2051,27794558920,27793755960,0.6144790649,-0.0034875774,-0.0386352129,0.0866477266,0,0.0966796875,-0.0322265625,0.0353121348,0.0126202032,0.0230435524,-0.0356637537,0,0.5396689773,0.0033149382,0.0122883776,-0.4175174832,-0.2255859375,-0.0322265625,0.3544921875,-0.0715680048,-0.0539790243,-0.0137556009,0.0677346289,0,0.0193989035,0.0008377343,22.5097408295,27792778760,0.3065625131,10.423125267,-0.172441408,0.0404800475,0.0266316123,-0.011717909,40,1008.37231445,12
1.5429839726093E+018,14951,1.54298397260905E+018,,3,0,0.3142532706,-0.2274219841,10,-10,10,-10,0,3,0,0.245424524,-0.3060322702,10,-10,10,-10,0,3,0,0.3085074723,-0.3030268252,10,-10,10,-10,0,3,0,0.1891793013,-0.4080187678,10,-10,10,-10,0,3,2051,27932308760,27931605160,1.835537672,0.0072441739,0.075684987,0.2478496432,0.2255859375,0.12890625,-0.12890625,0.038614247,0.0157513153,0.0227600001,-0.0303640552,0,3.640761137,-0.0065899133,0.0075396351,-0.1390284747,-0.064453125,0.064453125,0.12890625,-0.0431227461,-0.0424718298,0.0140228365,0.0284489933,0,6.0799379349,0.0005349357,22.3009757996,27930778760,0.2969824374,10.3464851379,-0.7376660705,-0.023435818,-0.0362189934,0.0479369015,37,1009.25390625,3,2051,27932207960,27931504520,1.2516746521,0.0068947971,-0.0398448631,0.2718087137,0.0322265625,0.2578125,-0.12890625,0.0137094157,0.0018607044,0.0108769145,-0.0127376188,0,1.1673488617,-0.0001864385,0.0124623012,-0.3478586972,-0.2900390625,-0.193359375,0.193359375,-0.0306243543,-0.0265813731,-0.0004075384,0.0269889124,0,6.0774860382,0.000268134,22.4360599518,27930778720,0.1245410219,10.4710254669,-0.1820214987,0.0031957934,0.0074568512,-0.0223705545,37.5,1009.49859619,3,2051,27932457800,27931747320,5.5347876549,0.0025160066,-0.0177185573,0.4584340155,0.064453125,-0.322265625,-0.580078125,0.0322977453,0.0301023629,-0.0049156258,-0.0251867361,0,1.7508063316,-0.0043744124,0.1057568267,-0.3489208519,-0.451171875,-0.193359375,0.0966796875,-0.0349722467,-0.0324895047,0.0035473704,0.0289421342,0,6.1364359856,0.0001136033,22.5343017578,27930778800,0.3448828161,10.3273248672,-0.1341211051,0.0564590171,0.023435818,0.0617853403,39,1008.83886719,3,2051,27932508840,27931728840,0.6145509481,0.012598943,-0.0151144145,0.2049509585,0.0322265625,0.1611328125,-0.12890625,0.0235539842,0.0100737792,0.0143473065,-0.0119664017,0,0.5396330357,-0.0083169723,0.071664691,-0.3809245527,-0.12890625,-0.0322265625,0.38671875,-0.0693994388,-0.0551573411,-0.008943487,0.0641008317,0,0.0193989035,0.0005184432,22.497461319,27930778760,0.1820214987,10.6147270203,-0.2682422102,0.0042610578,0.0010652645,-0.0330231972,40,1008.37054443,12
1.54298397274713E+018,14952,1.54298397274683E+018,,3,0,0.3204246461,-0.232788831,10,-10,10,-10,0,3,0,0.2476584911,-0.3084293008,10,-10,10,-10,0,3,0,0.3147098422,-0.304426223,10,-10,10,-10,0,3,0,0.2002924979,-0.4165897667,10,-10,10,-10,0,3,2051,28069308480,28068553840,1.8354897499,-0.0066477768,0.1249283031,0.3780740798,0.12890625,-0.0322265625,-0.4189453125,0.0312330797,0.0129006607,0.0182555057,-0.0311561674,0,3.6407730579,0.0043935771,0.0077891131,-0.3033508658,-0.193359375,0.0966796875,0.2255859375,-0.0262803007,-0.0258029271,0.0099091316,0.0225503985,0,6.0799379349,0.0001132379,22.3009757996,28067279080,0.2969824374,10.3752250671,-0.6322851777,0.0106526446,-0.0063915867,0.0138484379,37,1009.25512695,3,2051,28069107920,28068546400,1.251686573,0.0012839334,-0.0660928935,0.2705115676,0,0.2578125,-0.12890625,0.0187341329,0.0028984873,0.0146704838,-0.017568972,0,1.1673128605,-0.0033106995,-0.0559103377,-0.3602849841,-0.193359375,0.064453125,0.322265625,-0.0346775949,-0.0283993948,-0.0031390013,0.0315383971,0,6.0774860382,0.0007634371,22.4360599518,28067279040,0.2107617259,10.2027835846,-0.1820214987,-0.0138484379,0.0468716361,-0.0095873801,37.5,1009.49829102,3,2051,28069457920,28068745680,5.5348958969,0.0036313122,0.1829792857,0.2817293108,-0.0322265625,-0.4833984375,-0.515625,0.0584613644,0.0550166667,-0.0103404243,-0.0446762443,0,1.7506625652,-0.0013555497,-0.0031550522,-0.2153531015,-0.38671875,-0.1611328125,-0.0966796875,-0.0671330839,-0.0642492548,0.0147067048,0.04954255,0,6.1364359856,0.0003771923,22.5343017578,28067279080,0.3353027403,10.3752250671,-0.105380863,-0.0159789659,-0.0330231972,0.0266316123,39,1008.83746338,3,2051,28069458720,28068730960,0.6144910455,-0.0015239583,0.026995698,0.1878118366,0.0966796875,0.1611328125,-0.0966796875,0.0217765477,0.0121017899,0.0115311174,-0.0236329064,0,0.5396330357,0.0029674207,-0.0260159615,-0.5728769898,-0.1611328125,0,0.3544921875,-0.066524446,-0.0513549224,-0.0109437443,0.0622986667,0,0.0193989035,0.0013825294,22.497461319,28067279000,-0.0479003936,10.2794246674,-0.3448828161,-0.0319579318,0.0074568512,-0.0777643025,40,1008.37005615,12
1.54298397298246E+018,14953,1.54298397298224E+018,,3,0,0.3183515966,-0.2330690175,10,-10,10,-10,0,3,0,0.2479153872,-0.3093280196,10,-10,10,-10,0,3,0,0.3176327646,-0.301481396,10,-10,10,-10,0,3,0,0.1971641928,-0.4175737202,10,-10,10,-10,0,3,2051,28207208760,28206606120,1.8355016708,-0.0043356149,-0.1028027534,0.3846800625,0.1611328125,0.322265625,-0.2255859375,0.0341762826,0.0172876399,0.0169088952,-0.0341965333,0,3.640761137,0.0017604022,0.0223330613,-0.2527640462,-0.1611328125,0.12890625,0.12890625,-0.0340417288,-0.0332235917,0.0099980887,0.023225503,0,6.0799379349,0.0003017728,22.3009757996,28205279040,0.0383203141,10.4518661499,-0.2107617259,0.023435818,0.0266316123,-0.0181094967,37,1009.25183105,3,2051,28207157760,28206451520,1.2516986132,0.0076652272,0.0217810776,0.0923381373,-0.0322265625,0,-0.12890625,0.0376092531,0.0021587238,0.0314385034,-0.0335972272,0,1.1673009396,-0.0011577201,-0.1173800305,-0.3276939392,-0.322265625,0,0.12890625,-0.0534406714,-0.0425107628,-0.0068151075,0.0493258685,0,6.0774860382,0.0007477682,22.4360599518,28205279000,0.1341211051,10.3464851379,-0.0383203141,-0.0170442313,-0.0202400237,0.0010652645,37.5,1009.4977417,3,2051,28207407760,28206728000,5.5348358154,0.001408656,-0.1171430349,0.3277789354,0,-0.1611328125,-0.4833984375,0.0513537526,0.0480287224,-0.0071180873,-0.0407607332,0,1.7506505251,-0.0064477609,0.0353274792,-0.2512762845,-0.38671875,-0.1611328125,-0.0322265625,-0.0652392581,-0.0626840293,0.0153370742,0.047346957,0,6.1364359856,0.0017166431,22.5343017578,28205279080,0.1820214987,10.2794246674,-0.0383203141,0.0170442313,0.0127831735,0.0159789659,39,1008.83850098,3,2051,28207408760,28206741000,0.6145749688,0.0010715221,0.0010888672,0.1841847301,0.0966796875,0.193359375,-0.064453125,0.0227018259,0.0105907163,0.0132833775,-0.0238740947,0,0.5395491719,-0.0006190222,0.062614128,-0.3562759459,-0.1611328125,-0.064453125,0.322265625,-0.0614626929,-0.0483192839,-0.0087474789,0.057066761,0,0.0193989035,0.0007494393,22.497461319,28205279040,0.3448828161,10.0782423019,-0.4311035275,0.0287621394,-0.037284255,-0.0159789659,40,1008.37011719,12
1.54298397315937E+018,14954,1.54298397315909E+018,,3,0,0.3144132793,-0.2301048934,10,-10,10,-10,0,3,0,0.2468627095,-0.3058119714,10,-10,10,-10,0,3,0,0.3233934641,-0.3063809276,10,-10,10,-10,0,3,0,0.193256855,-0.4107549787,10,-10,10,-10,0,3,2051,28492358720,28492351920,1.8353698254,0.0031612858,-0.0121957781,0.3820150495,0.193359375,0.2255859375,-0.2578125,0.0349367559,0.0145839546,0.0202744491,-0.0348584019,0,3.6407251358,0.0004393396,0.0220789872,-0.0884346291,0.0322265625,0.0966796875,0.1611328125,-0.0508214571,-0.0497005805,0.0117448447,0.0272504725,0,6.0799379349,0.000165895,22.3009757996,28490279040,0.2874023616,10.2506837845,-0.1628613323,-0.0223705545,0.0490021631,-0.0500674285,37,1009.25073242,3,2051,28492307760,28492199840,1.25162673,0.0047509316,0.0697088912,0.1860246509,0.064453125,0.0966796875,-0.1611328125,0.0397391282,0.0012111475,0.0337999724,-0.0350111164,0,1.1674087048,-0.0031726309,0.0217365418,-0.3724098206,-0.3544921875,-0.193359375,0.1611328125,-0.0414556675,-0.0338018946,-0.0039899517,0.0377918482,0,6.0774860382,0.0007561108,22.4483394623,28490279000,-0.0191601571,10.5859870911,-0.3832031488,-0.0010652645,-0.0415453129,0.0660463944,37.5,1009.49627686,3,2051,28492507840,28492434320,5.5351953507,-0.0077682366,-0.00227271,0.3683663607,0,-0.322265625,-0.515625,0.05806439,0.0537913851,-0.0079551321,-0.045836255,0,1.7502191067,-0.0031471523,0.0090752961,-0.4742694795,-0.515625,-0.0322265625,0.12890625,-0.0345862135,-0.0323425122,0.004261327,0.0280811861,0,6.1364359856,0.0013004,22.5465812683,28490279040,0.2874023616,10.0878229141,-0.0479003936,0.0127831735,-0.0042610578,0,39,1008.83666992,3,2051,28492558720,28492492800,0.6146348715,0.010528571,0.0011992338,0.1841844767,0.064453125,0.1611328125,-0.0966796875,0.0921371207,0.0138433008,0.0196720064,-0.0335153081,0,0.5393933654,-0.0125903757,0.03225559,-0.4666256607,-0.2255859375,-0.0322265625,0.4189453125,-0.0530375391,-0.0408883654,-0.0088121425,0.049700506,0,0.0193989035,0.0010238271,22.5097408295,28490279000,0.0670605525,9.9824419022,-0.172441408,0.0021305289,0.035153728,0.0127831735,40,1008.37103271,12
